source_url,ta_location_id,restaurant_name,rating,total_review,address,street,house_number,postal_code,city,latitude,longitude,has_coordinates,photo_count,price_band,price_tier_level,cuisines,has_rating,has_review_count,low_review,has_address,has_reviews,has_hours,has_phone,has_website,has_email,website,phone,email,flags
https://www.tripadvisor.it/Restaurant_Review-g187849-d10024118-Reviews-Niro_Meet_Bar-Milan_Lombardy.html,10024118,Niro Meet Bar,3.0,74,"Via Nirone 7, 20123 Milano Italia",Via Nirone,7,20123,Milano,45.4650689,9.1782027,1,22,€,1,['Italiana'],1,1,0,1,1,1,1,1,1,facebook.com/niromeetbar,+390289092743,info@niromeetbar.it,[]
https://www.tripadvisor.it/Restaurant_Review-g187849-d10026643-Reviews-Pizzaclub_No_Limits-Milan_Lombardy.html,10026643,Pizzaclub No Limits Milano Imbonati,4.0,521,"Via Carlo Imbonati 20, 20159 Milano Italia",Via Carlo Imbonati,20,20159,Milano,45.5009618,9.1828788,1,167,€,1,['Pizza'],1,1,0,1,1,1,1,1,0,pizzaclubnolimits.com/index.php?i=home,+393442382269,,[]
https://www.tripadvisor.it/Restaurant_Review-g187849-d10027300-Reviews-La_Taverna_dei_Terroni-Milan_Lombardy.html,10027300,La Taverna dei Terroni,3.7,378,"Via Pietro Crespi 18 Mercato Comunale, 20127 Milano Italia",Via Pietro Crespi,18,20127,Milano,,,0,207,€,1,"['Italiana', 'Pesce']",1,1,0,1,1,1,1,1,0,facebook.com/1125991107412922,+39335404821,,['missing_coordinates']
https://www.tripadvisor.it/Restaurant_Review-g187849-d10034030-Reviews-Stella_d_Asia-Milan_Lombardy.html,10034030,Stella d'Asia,4.2,484,"Viale Brenta, 14 Vicino alla metropolitana brenta, 20139 Milano Italia",Viale Brenta,14,20139,Milano,,,0,638,€€-€€€,2,"['Italiana', 'Cinese']",1,1,0,1,1,1,1,1,1,ristorantestelladasia.com,+3902538541,valentinajiang@icloud.com,['missing_coordinates']
https://www.tripadvisor.it/Restaurant_Review-g187849-d10035419-Reviews-Dvb_DOLCEVITA_BISTROT-Milan_Lombardy.html,10035419,dvb DOLCEVITA BISTROT,4.4,41,"Via Alserio, 28 Angolo Via Alserio, 20159 Milano Italia",Via Alserio,28,20159,Milano,,,0,23,€€-€€€,2,"['Italiana', 'Caffetteria']",1,1,0,1,1,1,1,1,1,dolcevitabistrot.it,+390239525210,dolcevitabistrot16@gmail.com,['missing_coordinates']
https://www.tripadvisor.it/Restaurant_Review-g187849-d10037015-Reviews-A_Vucciria-Milan_Lombardy.html,10037015,A'Vucciria NAVIGLI,3.2,517,"Viale Gorizia, 32/A, 20123 Milano Italia",Viale Gorizia,32/A,20123,Milano,45.4548614,9.1728536,1,227,€,1,"['Italiana', 'Fast food']",1,1,0,1,1,1,1,1,1,a-vucciria.it,+393383076654,info@a-vucciria.it,[]
https://www.tripadvisor.it/Restaurant_Review-g187849-d10040703-Reviews-Signorvino_Milano_Duomo-Milan_Lombardy.html,10040703,Signorvino - Milano Duomo,3.4,1099,"Via Pattari 2 Piazza Del Duomo, 20122 Milano Italia",Via Pattari,2,20122,Milano,,,0,749,€€-€€€,2,"['Italiana', 'Mediterranea']",1,1,0,1,1,1,1,1,1,signorvino.com/it/negozi/milano/via_pattari_2/b002.html,+390289092539,milano.duomo@signorvino.it,['missing_coordinates']
https://www.tripadvisor.it/Restaurant_Review-g187849-d10045050-Reviews-Noyi_Restaurant_Japanese-Milan_Lombardy.html,10045050,NOYI Restaurant Japanese,4.0,83,"Via Lodovico il Moro 13 Via Valtellina 6, 20143 Milano Italia",Via Lodovico il Moro,13,20143,Milano,,,0,63,€€-€€€,2,"['Cinese', 'Giapponese']",1,1,0,1,1,1,1,1,1,facebook.com/NOYI-Restaurant-Japanese-1030369080369112,+390236558205,davide0904@virgilio.it,['missing_coordinates']
https://www.tripadvisor.it/Restaurant_Review-g187849-d10047238-Reviews-Gran_Caffe_Cavalieri-Milan_Lombardy.html,10047238,Gran Caffe Cavalieri,3.8,13,"Via Plinio 24 Along Via Bartolomeo Eustachi, 20146 Milano Italia",Via Plinio,24,20146,Milano,,,0,9,,,[],1,1,0,1,1,0,1,1,0,facebook.com/198739160140950,+393937467356,,"['no_hours', 'missing_coordinates']"
https://www.tripadvisor.it/Restaurant_Review-g187849-d10053255-Reviews-Sigiri-Milan_Lombardy.html,10053255,Sigiri,3.7,3,"Via Dei Transiti 26, 20127 Milano Italia",Via Dei Transiti,26,20127,Milano,45.4912404,9.2191599,1,9,,,['Asiatica'],1,1,1,1,1,0,1,1,0,facebook.com/Sigiri-fast-food-Ceylon-choice-943589885717429,+393249090290,,"['low_review', 'no_hours']"
https://www.tripadvisor.it/Restaurant_Review-g187849-d10053809-Reviews-Momo_Milano-Milan_Lombardy.html,10053809,Momo Milano,4.0,227,"Piazza Tito Minniti 5, 20159 Milano Italia",Piazza Tito Minniti,5,20159,Milano,45.4877879,9.1886667,1,116,€,1,['Italiana'],1,1,0,1,1,1,1,1,0,facebook.com/momofruitbar/?fref=nf,+390287087480,,[]
https://www.tripadvisor.it/Restaurant_Review-g187849-d10054235-Reviews-Muddica-Milan_Lombardy.html,10054235,Muddica,4.1,383,"Viale Monte Nero, 27, 20135 Milano Italia",Viale Monte Nero,27,20135,Milano,45.4560345,9.2045467,1,205,€€-€€€,2,"['Italiana', 'Pesce']",1,1,0,1,1,1,1,1,1,muddica.it,+390254090164,muddicasrl@legalmail.it,[]
https://www.tripadvisor.it/Restaurant_Review-g187849-d10057347-Reviews-Pizzeria_Che_Pizza-Milan_Lombardy.html,10057347,Pizzeria Che Pizza,4.1,10,"Via Mantova 5 Hotel Visconti Palace, 20135 Milano Italia",Via Mantova,5,20135,Milano,,,0,36,€,1,"['Italiana', 'Pizza']",1,1,0,1,1,1,1,1,0,pizzeriachepizza.it,+390238265482,,['missing_coordinates']
https://www.tripadvisor.it/Restaurant_Review-g187849-d10061020-Reviews-Mama_s_Cafe-Milan_Lombardy.html,10061020,Mama's Cafè,4.1,17,"Milano Via Francesco Gonin 56, 20147 Milano Italia",Milano Via Francesco Gonin,56,20147,Milano,,,0,11,€,1,['Italiana'],1,1,0,1,1,1,1,1,1,facebook.com/mamascafemilano,+390241270336,info@mamascafe-milano.com,['missing_coordinates']
https://www.tripadvisor.it/Restaurant_Review-g187849-d10063998-Reviews-Muzza-Milan_Lombardy.html,10063998,Muzza,3.5,15,"Viale Zara 149, 20125 Milano Italia",Viale Zara,149,20125,Milano,45.5011222,9.1972494,1,4,€,1,['Italiana'],1,1,0,1,1,0,1,0,0,,+3902606854,,['no_hours']
https://www.tripadvisor.it/Restaurant_Review-g187849-d1007308-Reviews-Il_Giardino_della_Birra-Milan_Lombardy.html,1007308,Il Giardino della Birra,2.9,455,"Via Ortica 10, 20134 Milano Italia",Via Ortica,10,20134,Milano,45.4714895,9.2454315,1,38,€€-€€€,2,['Italiana'],1,1,0,1,1,1,1,1,0,ilgiardinodellabirra.com,+390294159449,,[]
https://www.tripadvisor.it/Restaurant_Review-g187849-d1007525-Reviews-Gallura-Milan_Lombardy.html,1007525,Gallura,4.3,1016,"Via Vittoria Colonna 50, 20149 Milano Italia",Via Vittoria Colonna,50,20149,Milano,45.4706579,9.1538471,1,608,€€-€€€,2,"['Italiana', 'Pesce']",1,1,0,1,1,1,1,1,1,gallura1988.it/dove-siamo,+3902462896,info@gallura1988.it,[]
https://www.tripadvisor.it/Restaurant_Review-g187849-d1008025-Reviews-Fioraio_Bianchi_Caffe-Milan_Lombardy.html,1008025,Fioraio Bianchi Caffe,3.3,480,"Via Montebello, 7, 20121 Milano Italia",Via Montebello,7,20121,Milano,45.4752937,9.1891046,1,169,€€-€€€,2,"['Italiana', 'Mediterranea']",1,1,0,1,1,1,1,1,1,fioraiobianchicaffe.it,+390229014390,info@fioraiobianchicaffe.it,[]
https://www.tripadvisor.it/Restaurant_Review-g187849-d10083622-Reviews-Il_Posto_Giusto-Milan_Lombardy.html,10083622,Il Posto Giusto,4.0,17,"Via Ottaviano Fabrizio Mossotti 1 angolo via Nava, 20159 Milano Italia",Via Ottaviano Fabrizio Mossotti,1,20159,Milano,,,0,8,€,1,['Italiana'],1,1,0,1,1,0,1,1,1,ilpostogiustomilano.it,+390236637370,info@ilpostogiustomilano.it,"['no_hours', 'missing_coordinates']"
https://www.tripadvisor.it/Restaurant_Review-g187849-d10085331-Reviews-La_Cuccagna-Milan_Lombardy.html,10085331,La Cuccagna,3.8,19,"Via Giuseppe Ponzio 82, 20133 Milano Italia",Via Giuseppe Ponzio,82,20133,Milano,45.4823416,9.2301489,1,2,€,1,"['Italiana', 'Pizza']",1,1,0,1,1,0,1,0,0,,+39022360296,,['no_hours']
https://www.tripadvisor.it/Restaurant_Review-g187849-d10085348-Reviews-Brera_Milano-Milan_Lombardy.html,10085348,Brera Milano Marsala,3.0,52,"Via Marsala 2, 20121 Milano Italia",Via Marsala,2,20121,Milano,45.4783472,9.1880027,1,14,€,1,"['Italiana', 'Pizza']",1,1,0,1,1,0,1,1,1,breramilano.it,+390265560297,info@breramilano.it,['no_hours']
https://www.tripadvisor.it/Restaurant_Review-g187849-d10086125-Reviews-Sfizio_by_Eataly-Milan_Lombardy.html,10086125,Sfizio,4.4,169,"Piazza Fontana 3 Starhotels Rosa Grand, 20122 Milano Italia",Piazza Fontana,3,20122,Milano,,,0,144,€€-€€€,2,"['Italiana', 'Pesce']",1,1,0,1,1,1,1,1,1,collezione.starhotels.com/it/i-nostri-hotel/rosa-grand-milano/ristorazione/sfizio,+390288311,rosa.mi@starhotels.it,['missing_coordinates']
https://www.tripadvisor.it/Restaurant_Review-g187849-d10086331-Reviews-Grand_Lounge_Bar_by_Eataly-Milan_Lombardy.html,10086331,Grand Lounge & Bar,4.4,8,"Via Fontana 3, 20122 Milano Italia",Via Fontana,3,20122,Milano,45.4620617,9.2038555,1,13,€€€€,4,['Italiana'],1,1,1,1,1,1,1,1,1,starhotels.com/en/our-hotels/rosa-grand-milan/restaurant-and-bar/grand-lounge-and-bar.html,+390288311,rosa.mi@starhotels.it,['low_review']
https://www.tripadvisor.it/Restaurant_Review-g187849-d10086847-Reviews-Alchimie-Milan_Lombardy.html,10086847,Alchimie,3.8,13,"Corso Europa 12, 20122 Milano Italia",Corso Europa,12,20122,Milano,45.4642616,9.1966092,1,15,€,1,"['Italiana', 'Pesce']",1,1,0,1,1,1,1,1,0,facebook.com/alchimie.paola.borriello,+390276280646,,[]
https://www.tripadvisor.it/Restaurant_Review-g187849-d1009645-Reviews-Ristorante_Pizzeria_Sabatini-Milan_Lombardy.html,1009645,Ristorante Pizzeria Sabatini,3.7,1741,"Via Boscovich 54 ang.C.so Buenos Aires, 20129 Milano Italia",Via Boscovich,54,20129,Milano,,,0,618,€€-€€€,2,"['Italiana', 'Pizza']",1,1,0,1,1,1,1,1,0,ristorantesabatini.com,+390229402814,,['missing_coordinates']
https://www.tripadvisor.it/Restaurant_Review-g187849-d10096538-Reviews-Dino_Cafe-Milan_Lombardy.html,10096538,Dino Cafè,3.8,72,"Piazza della Trivulziana, 5, 20126 Milano Italia",Piazza della Trivulziana,5,20126,Milano,45.5152024,9.2113814,1,29,€€-€€€,2,['Italiana'],1,1,0,1,1,1,1,1,1,dinocafe.eu,+39026433035,tberto78@yahoo.it,[]
https://www.tripadvisor.it/Restaurant_Review-g187849-d1009774-Reviews-Parco_Sushi-Milan_Lombardy.html,1009774,Parco Sushi,3.5,326,"Corso Magenta 14, 20123 Milano Italia",Corso Magenta,14,20123,Milano,45.4658096,9.1793615,1,140,€€-€€€,2,"['Giapponese', 'Pesce']",1,1,0,1,1,1,1,1,0,parco-sushi-sashimi.it,+390272003520,,[]
https://www.tripadvisor.it/Restaurant_Review-g187849-d1010435-Reviews-Il_Montalcino-Milan_Lombardy.html,1010435,Il Montalcino,4.0,537,"Via Valenza 17, 20144 Milano Italia",Via Valenza,17,20144,Milano,45.4507668,9.1685135,1,288,€€-€€€,2,"['Italiana', 'Mediterranea']",1,1,0,1,1,1,1,1,1,ilmontalcino.it,+39028321926,ilmontalcino@tin.it,[]
https://www.tripadvisor.it/Restaurant_Review-g187849-d10105228-Reviews-Burger_King-Milan_Lombardy.html,10105228,Burger King,1.6,67,"Piazzale Luigi Cadorna 16, 20123 Milano Italia",Piazzale Luigi Cadorna,16,20123,Milano,45.4685417,9.1756243,1,17,€,1,"['Americana', 'Fast food']",1,1,0,1,1,1,1,1,0,burgerking.it/ristoranti/lombardia/milano/burger-king-milano-83,+39028053860,,[]
https://www.tripadvisor.it/Restaurant_Review-g187849-d10107196-Reviews-Birreria_Stella-Milan_Lombardy.html,10107196,Birreria Stella,4.2,13,"Viale Argonne 9, 20133 Milano Italia",Viale Argonne,9,20133,Milano,45.4684747,9.2262116,1,5,€€-€€€,2,['Fast food'],1,1,0,1,1,0,1,1,0,facebook.com/141552939995183,+390270102349,,['no_hours']
https://www.tripadvisor.it/Restaurant_Review-g187849-d10109293-Reviews-La_Carrettiera-Milan_Lombardy.html,10109293,La Carrettiera,4.0,243,"Via Degli Imbriani, 30, 20158 Milano Italia",Via Degli Imbriani,30,20158,Milano,45.5000299,9.1683757,1,52,€,1,"['Italiana', 'Mediterranea']",1,1,0,1,1,1,1,0,1,,+390239310316,mauriziobahiano@hotmail.com,[]
https://www.tripadvisor.it/Restaurant_Review-g187849-d10119696-Reviews-American_Bar-Milan_Lombardy.html,10119696,American Bar,4.0,1,"Via Daniele Manin 7 Hotel Manin, 20121 Milano Italia",Via Daniele Manin,7,20121,Milano,,,0,,,,[],1,1,1,1,1,0,1,1,1,hotelmanin.it/en/default.html,+39026596511,info@hotelmanin.it,"['low_review', 'no_hours', 'missing_coordinates']"
https://www.tripadvisor.it/Restaurant_Review-g187849-d1012004-Reviews-Dawali-Milan_Lombardy.html,1012004,Dawali,4.3,985,"Via Corrado II Il Salico 10, 20141 Milano Italia",Via Corrado II Il Salico,10,20141,Milano,45.4411713,9.1902314,1,311,€€-€€€,2,"['Libanese', 'Mediterranea']",1,1,0,1,1,1,1,1,1,dawali.it,+390284895668,info@dawali.it,[]
https://www.tripadvisor.it/Restaurant_Review-g187849-d10120121-Reviews-Langosteria_Cafe-Milan_Lombardy.html,10120121,Langosteria Café,4.3,755,"Galleria del Corso 4, 20122 Milano Italia",Galleria del Corso,4,20122,Milano,45.4647361,9.1948174,1,642,€€€€,4,"['Italiana', 'Pesce']",1,1,0,1,1,1,1,1,0,langosteria.com/en/langosteria-cafe,+390276018167,,[]
https://www.tripadvisor.it/Restaurant_Review-g187849-d1012079-Reviews-Zio_Pesce_Navigli-Milan_Lombardy.html,1012079,Zio Pesce Navigli,3.9,1358,"Via Cicco Simonetta 8, 20123 Milano Italia",Via Cicco Simonetta,8,20123,Milano,45.4571778,9.1768453,1,409,€€-€€€,2,"['Italiana', 'Pesce']",1,1,0,1,1,1,1,1,1,ziopesce.com/home-pescherie-verticale/contattaci,+390258109145,info@ziopesce.it,[]
https://www.tripadvisor.it/Restaurant_Review-g187849-d1012083-Reviews-Ristorante_Novecento-Milan_Lombardy.html,1012083,Ristorante Novecento,3.8,654,"Via Carlo Ravizza 13, 20149 Milano Italia",Via Carlo Ravizza,13,20149,Milano,45.4685094,9.1509018,1,140,€€-€€€,2,"['Italiana', 'Pizza']",1,1,0,1,1,1,1,1,1,novecentoravizza.it,+390248007166,novecento.ravizza@gmail.com,[]
https://www.tripadvisor.it/Restaurant_Review-g187849-d1012286-Reviews-Lo_Stacco-Milan_Lombardy.html,1012286,Lo Stacco Milano,3.5,285,"Via Noto, 8 Angolo via Ripamonti, 20141 Milano Italia",Via Noto,8,20141,Milano,,,0,239,€€-€€€,2,"['Italiana', 'Pesce']",1,1,0,1,1,1,1,1,1,lostaccomilano.com,+390237052223,info@lo-stacco.it,['missing_coordinates']
https://www.tripadvisor.it/Restaurant_Review-g187849-d1013979-Reviews-Ristorante_da_Gaspare-Milan_Lombardy.html,1013979,Ristorante da Gaspare,3.6,497,"Via Carlo Ravizza 19, 20149 Milano Italia",Via Carlo Ravizza,19,20149,Milano,45.4687334,9.1506043,1,244,€€-€€€,2,"['Italiana', 'Pesce']",1,1,0,1,1,1,1,1,1,ristorantedagaspare.com,+390248006409,info@ristorantedagaspare.com,[]
https://www.tripadvisor.it/Restaurant_Review-g187849-d1014472-Reviews-Horse_Cafe-Milan_Lombardy.html,1014472,Horse Cafe,4.3,254,"Viale Monte Nero 21, 20135 Milano Italia",Viale Monte Nero,21,20135,Milano,45.455446,9.2042238,1,85,€€-€€€,2,['Pesce'],1,1,0,1,1,1,1,1,0,facebook.com/HorseCafeRestaurantBarDiBellottiCarlo,+390255012069,,[]
https://www.tripadvisor.it/Restaurant_Review-g187849-d10145438-Reviews-Pizza_Vuoi-Milan_Lombardy.html,10145438,Pizza Vuoi,4.2,19,"Via Antonio Tantardini, 8, 20136 Milano Italia",Via Antonio Tantardini,8,20136,Milano,45.4463176,9.1802645,1,18,€,1,"['Italiana', 'Pizza']",1,1,0,1,1,1,1,1,1,pizzaadomiciliomilano.it,+390258118940,pizzavuoi@gmail.com,[]
https://www.tripadvisor.it/Restaurant_Review-g187849-d10146032-Reviews-Ristorante_Pizzeria_Il_Veliero_Viale_Romagna_59-Milan_Lombardy.html,10146032,"Ristorante Pizzeria Il Veliero Viale Romagna, 59",4.4,33,"Viale Romagna 59, 20133 Milano Italia",Viale Romagna,59,20133,Milano,45.477874,9.2233778,1,15,€€-€€€,2,"['Italiana', 'Pizza']",1,1,0,1,1,1,1,1,1,ilvelieropizzeriaristorante.com,+390223951050,tawadrous.mariam@ymail.com,[]
https://www.tripadvisor.it/Restaurant_Review-g187849-d10147693-Reviews-Istanbul_Murillo-Milan_Lombardy.html,10147693,Istanbul Murillo,3.6,5,"Viale Murillo 33 Bande Nere, 20149 Milano Italia",Viale Murillo,33,20149,Milano,,,0,,,,['Mediorientale'],1,1,1,1,1,0,0,0,0,,,,"['low_review', 'no_hours', 'missing_coordinates']"
https://www.tripadvisor.it/Restaurant_Review-g187849-d10147777-Reviews-Il_Capriccio-Milan_Lombardy.html,10147777,Il Capriccio,4.1,16,"Viale Andrea Doria 22, 20124 Milano Italia",Viale Andrea Doria,22,20124,Milano,45.4854126,9.2116122,1,19,€€-€€€,2,"['Italiana', 'Pesce']",1,1,0,1,1,0,1,1,0,doriagrandhotel.it/it/food-beverage/ristorante-il-capriccio,+390267411411,,['no_hours']
https://www.tripadvisor.it/Restaurant_Review-g187849-d10151938-Reviews-Restaurant_Haru-Milan_Lombardy.html,10151938,Restaurant Haru,3.3,175,"Corso Sempione 33, 20145 Milano Italia",Corso Sempione,33,20145,Milano,45.4799485,9.1660145,1,74,€€-€€€,2,"['Cinese', 'Giapponese']",1,1,0,1,1,1,1,1,1,harurestaurant.it,+390236643790,restaurantharu33@gmail.com,[]
https://www.tripadvisor.it/Restaurant_Review-g187849-d1015487-Reviews-Llevataps-Milan_Lombardy.html,1015487,Llevataps,3.7,531,"Via Ariberto, 31, 20123 Milano Italia",Via Ariberto,31,20123,Milano,45.459733,9.1717681,1,208,€€-€€€,2,"['Pesce', 'Mediterranea']",1,1,0,1,1,1,1,1,1,llevataps.it,+390258101105,info@llevataps.it,[]
https://www.tripadvisor.it/Restaurant_Review-g187849-d10156016-Reviews-Tondo_Cafe-Milan_Lombardy.html,10156016,Tondo Cafè,4.8,22,"Via Monte Cengio 6/A, 20138 Milano Italia",Via Monte Cengio,6/A,20138,Milano,45.4303187,9.2472445,1,11,€,1,['Italiana'],1,1,0,1,1,1,1,1,1,tondocafe.altervista.org,+390239981397,tondoxx@gmail.com,[]
https://www.tripadvisor.it/Restaurant_Review-g187849-d10160326-Reviews-EAT_Restaurant-Milan_Lombardy.html,10160326,EAT Restaurant,4.0,41,"Via Quadronno, 29, 20122 Milano Italia",Via Quadronno,29,20122,Milano,45.4542329,9.1947938,1,55,€€-€€€,2,"['Italiana', 'Pesce']",1,1,0,1,1,1,1,1,0,facebook.com/103924326676524,+390258395273,,[]
https://www.tripadvisor.it/Restaurant_Review-g187849-d10162051-Reviews-Amsterdam_Chips-Milan_Lombardy.html,10162051,Amsterdam Chips,2.1,38,"Via Vigevano, 45, 20144 Milano Italia",Via Vigevano,45,20144,Milano,45.4531086,9.1704103,1,5,€,1,['Europea'],1,1,0,1,1,0,0,1,1,amsterdamchips.com,,info@amsterdamchips.com,['no_hours']
https://www.tripadvisor.it/Restaurant_Review-g187849-d10168182-Reviews-Mugs_Co_Cozy_Cafe_Bakery-Milan_Lombardy.html,10168182,Mugs & Co Cozy Cafe & Bakery,4.2,113,"Via Emilio Morosini 4, 20135 Milano Italia",Via Emilio Morosini,4,20135,Milano,45.4615841,9.2111592,1,54,€,1,"['Italiana', 'Caffetteria']",1,1,0,1,1,1,1,1,0,mugsandco.eu,+390287383354,,[]
https://www.tripadvisor.it/Restaurant_Review-g187849-d10173029-Reviews-PanEVO_Restaurant-Milan_Lombardy.html,10173029,PanEVO Restaurant,4.0,241,"Piazza della Repubblica 20 The Westin Palace, 20124 Milano Italia",Piazza della Repubblica,20,20124,Milano,,,0,266,€€€€,4,['Italiana'],1,1,0,1,1,1,1,1,1,panevorestaurant.com,+393318882279,panevorestaurant@westin.com,['missing_coordinates']
https://www.tripadvisor.it/Restaurant_Review-g187849-d10173779-Reviews-VIVECA-Milan_Lombardy.html,10173779,VIVECA,3.7,483,"Via Alessandro Tadino, 9, 20124 Milano Italia",Via Alessandro Tadino,9,20124,Milano,45.4768573,9.2055397,1,355,€€-€€€,2,"['Italiana', 'Pizza']",1,1,0,1,1,1,1,1,0,viveca.it,+390220404914,,[]
https://www.tripadvisor.it/Restaurant_Review-g187849-d10174062-Reviews-Al_Noor_2_Rosticceria_Indiana-Milan_Lombardy.html,10174062,Al Noor 2 Rosticceria Indiana,3.8,48,"Via Edoardo Bassini 47, 20133 Milano Italia",Via Edoardo Bassini,47,20133,Milano,45.4814161,9.2364273,1,7,€,1,['Indiana'],1,1,0,1,1,1,1,1,0,al-noor-2-rosticceria-indiana.it,+390236750553,,[]
https://www.tripadvisor.it/Restaurant_Review-g187849-d10174704-Reviews-Babagel-Milan_Lombardy.html,10174704,Babagel,4.1,23,"Via Padova 228, 20132 Milano Italia",Via Padova,228,20132,Milano,45.5041274,9.2406659,1,1,€,1,[],1,1,0,1,1,0,1,0,0,,+39022562185,,['no_hours']
https://www.tripadvisor.it/Restaurant_Review-g187849-d10182271-Reviews-Gesto_Milano-Milan_Lombardy.html,10182271,Gesto Milano,4.0,551,"Via Giuseppe Sirtori 15, 20129 Milano Italia",Via Giuseppe Sirtori,15,20129,Milano,45.4736348,9.2077747,1,470,€€-€€€,2,"['Italiana', 'Pesce']",1,1,0,1,1,1,1,1,1,gestomilano.it,+3902201006,info@gestofailtuo.it,[]
https://www.tripadvisor.it/Restaurant_Review-g187849-d10185679-Reviews-Leccentrico-Milan_Lombardy.html,10185679,Leccentrico,3.6,65,"Via Festa del Perdono 14, 20122 Milano Italia",Via Festa del Perdono,14,20122,Milano,45.4606229,9.1938486,1,28,€,1,"['Italiana', 'Mediterranea']",1,1,0,1,1,0,1,1,0,facebook.com/Leccentrico-Gusto-Salentino-Milano-1697099430538512,+393283369115,,['no_hours']
https://www.tripadvisor.it/Restaurant_Review-g187849-d1018679-Reviews-El_Tombon_de_San_Marc-Milan_Lombardy.html,1018679,El Tombon de San Marc,3.5,270,"Via San Marco 20, 20121 Milano Italia",Via San Marco,20,20121,Milano,45.4754674,9.1885803,1,127,€€-€€€,2,"['Italiana', 'Mediterranea']",1,1,0,1,1,1,1,1,1,eltombon.it,+390254077683,info@eltombon.it,[]
https://www.tripadvisor.it/Restaurant_Review-g187849-d10188822-Reviews-The_Rowing_Club-Milan_Lombardy.html,10188822,The Rowing Club,4.3,64,"Alzaia Naviglio Grande 146, 20144 Milano Italia",Alzaia Naviglio Grande,146,20144,Milano,45.4474862,9.153438,1,71,€€-€€€,2,"['Italiana', 'Pesce']",1,1,0,1,1,1,1,1,1,therowingclub.it,+390248951584,info@therowingclub.it,[]
https://www.tripadvisor.it/Restaurant_Review-g187849-d10190820-Reviews-Vasiliki_Kouzina-Milan_Lombardy.html,10190820,Vasiliki Kouzina,3.4,336,"Via Clusone 6, 20135 Milano Italia",Via Clusone,6,20135,Milano,45.4579118,9.206671,1,168,€€-€€€,2,"['Pesce', 'Mediterranea']",1,1,0,1,1,1,1,1,1,vasiliki.world/it,+390294381405,vasiliki@vasilikikouzina.com,[]
https://www.tripadvisor.it/Restaurant_Review-g187849-d10195857-Reviews-La_Darsena-Milan_Lombardy.html,10195857,La Darsena,4.4,104,"Via Gentilino 11, 20136 Milano Italia",Via Gentilino,11,20136,Milano,45.4491196,9.1814841,1,119,€€-€€€,2,"['Italiana', 'Pizza']",1,1,0,1,1,1,1,1,1,facebook.com/La-Darsena-252766761723002,+390258111676,magdy.magdy.mikhaeil22@gmail.com,[]
https://www.tripadvisor.it/Restaurant_Review-g187849-d10200824-Reviews-Monza_237-Milan_Lombardy.html,10200824,Monza 237,2.9,92,"Viale Monza, 237, 20126 Milano Italia",Viale Monza,237,20126,Milano,45.5097199,9.2236231,1,53,€€-€€€,2,"['Italiana', 'Pizza']",1,1,0,1,1,0,1,0,0,,+390236527908,,['no_hours']
https://www.tripadvisor.it/Restaurant_Review-g187849-d10205573-Reviews-Noodle_Soup-Milan_Lombardy.html,10205573,Noodle Soup,4.0,52,"Via Paolo Sarpi 21, 20154 Milano Italia",Via Paolo Sarpi,21,20154,Milano,45.4813403,9.1767088,1,67,€,1,"['Cinese', 'Asiatica']",1,1,0,1,1,1,1,0,0,,+390236699261,,[]
https://www.tripadvisor.it/Restaurant_Review-g187849-d10209513-Reviews-Yang_Sushi_Fusion-Milan_Lombardy.html,10209513,Yang Sushi & Fusion,4.3,732,"Via Gerolamo Cardano, 8, 20124 Milano Italia",Via Gerolamo Cardano,8,20124,Milano,45.4855024,9.197834,1,796,€€-€€€,2,"['Giapponese', 'Pesce']",1,1,0,1,1,1,1,1,1,thefork.it/ristorante/yang-sushi-and-fusion-r209757,+390236564212,yangsushimilano@gmail.com,[]
https://www.tripadvisor.it/Restaurant_Review-g187849-d10210835-Reviews-Hosteria_della_Musica_Brera-Milan_Lombardy.html,10210835,Hosteria della Musica Brera,4.0,1448,"Vicolo Fiori 2, 20121 Milano Italia",Vicolo Fiori,2,20121,Milano,45.4721542,9.1856596,1,741,€€-€€€,2,['Italiana'],1,1,0,1,1,1,1,1,1,hosteriadellamusica.com,+390239661149,brera@hosteriadellamusica.com,[]
https://www.tripadvisor.it/Restaurant_Review-g187849-d10218239-Reviews-Portello_Caffe_Milano_Piazza_Portello-Milan_Lombardy.html,10218239,Portello Caffe Milano Piazza Portello,2.7,95,"Via Grosotto In front of C.C. Iper Portello, 20149 Milano Italia",Via Grosotto In front of C.C. Iper Portello,,20149,Milano,,,0,32,€,1,['Caffetteria'],1,1,0,1,1,1,1,1,1,it-it.facebook.com/portellocaffe,+390383813796,portello.m@risto.it,['missing_coordinates']
https://www.tripadvisor.it/Restaurant_Review-g187849-d10218247-Reviews-La_Birreria_Italiana_Milano_Darsena-Milan_Lombardy.html,10218247,La Birreria Italiana Milano Darsena,3.4,326,"Piazzale Cantore 4 Zona darsena, 20100 Milano Italia",Piazzale Cantore,4,20100,Milano,,,0,82,€,1,"['Italiana', 'Americana']",1,1,0,1,1,1,1,1,1,labirreriaitaliana.it/milano,+390258102209,info@labirreriaitaliana.it,['missing_coordinates']
https://www.tripadvisor.it/Restaurant_Review-g187849-d10218451-Reviews-Ono_Sushi_Experience-Milan_Lombardy.html,10218451,Ono Sushi Experience,3.7,736,"Via Felice Casati 8, 20124 Milano Italia",Via Felice Casati,8,20124,Milano,45.4778127,9.2058558,1,460,€€-€€€,2,"['Cinese', 'Giapponese']",1,1,0,1,1,1,1,1,0,onosushiexperience.com,+390236599133,,[]
https://www.tripadvisor.it/Restaurant_Review-g187849-d10218638-Reviews-Huaxia_Enoteca-Milan_Lombardy.html,10218638,Huaxia Enoteca,3.9,32,"Via Maurizio Quadrio 23, 20154 Milano Italia",Via Maurizio Quadrio,23,20154,Milano,45.4838771,9.1819259,1,16,€€-€€€,2,['Italiana'],1,1,0,1,1,1,1,1,1,facebook.com/Huaxia-Enoteca-116549301789004,+390287240358,info@huaxiaenoteca.com,[]
https://www.tripadvisor.it/Restaurant_Review-g187849-d10224651-Reviews-Bar_BAH-Milan_Lombardy.html,10224651,Bar BAH,4.3,42,"Via Luigi Porro Lambertenghi 20, 20159 Milano Italia",Via Luigi Porro Lambertenghi,20,20159,Milano,45.4890287,9.1870211,1,18,€€-€€€,2,[],1,1,0,1,1,0,1,1,1,facebook.com/barbah2015,+390236756201,barbahmilano@gmail.com,['no_hours']
https://www.tripadvisor.it/Restaurant_Review-g187849-d10224859-Reviews-Noi_Pesce-Milan_Lombardy.html,10224859,Noi Pesce,4.3,538,"Piazzale Damiano Chiesa, 2, 20149 Milano Italia",Piazzale Damiano Chiesa,2,20149,Milano,45.4845028,9.1570992,1,666,€€-€€€,2,"['Italiana', 'Pesce']",1,1,0,1,1,1,1,1,1,noipesce.it,+390249530729,info@noipesce.it,[]
https://www.tripadvisor.it/Restaurant_Review-g187849-d10229522-Reviews-Piz-Milan_Lombardy.html,10229522,Piz,4.6,7122,"Via Torino 34, 20123 Milano Italia",Via Torino,34,20123,Milano,45.4618551,9.1857976,1,3717,€,1,"['Italiana', 'Pizza']",1,1,0,1,1,1,1,1,0,facebook.com/PIZmilano,+390272096413,,[]
https://www.tripadvisor.it/Restaurant_Review-g187849-d10235153-Reviews-Caffe_Bar_Farini-Milan_Lombardy.html,10235153,Caffe Bar Farini,3.7,3,"Via Carlo Farini 73, 20159 Milano Italia",Via Carlo Farini,73,20159,Milano,45.4884109,9.1824135,1,,,,[],1,1,1,1,1,0,0,0,0,,,,"['low_review', 'no_hours']"
https://www.tripadvisor.it/Restaurant_Review-g187849-d10235587-Reviews-Barba-Milan_Lombardy.html,10235587,Barba,4.0,142,"Via San Gregorio 40, 20124 Milano Italia",Via San Gregorio,40,20124,Milano,45.4809163,9.2018167,1,101,€€-€€€,2,"['Italiana', 'Caffetteria']",1,1,0,1,1,1,1,1,1,barbamilano.it,+393516703958,info@barbamilano.it,[]
https://www.tripadvisor.it/Restaurant_Review-g187849-d1023627-Reviews-Antica_Hostaria_della_Lanterna-Milan_Lombardy.html,1023627,Antica Hostaria della Lanterna,4.1,698,"Via Giuseppe Mercalli 3, 20122 Milano Italia",Via Giuseppe Mercalli,3,20122,Milano,45.4555471,9.1882114,1,108,€,1,['Italiana'],1,1,0,1,1,1,1,1,0,facebook.com/pages/Antica-Hostaria-Della-Lanterna/306886109428845,+390258309604,,[]
https://www.tripadvisor.it/Restaurant_Review-g187849-d10241322-Reviews-Cooperativa_Antonio_Labriola-Milan_Lombardy.html,10241322,Cooperativa Antonio Labriola,3.9,8,"Via Enrico Falck 51, 20151 Milano Italia",Via Enrico Falck,51,20151,Milano,45.4992353,9.1022424,1,8,€,1,['Italiana'],1,1,1,1,1,1,1,1,1,cooperativalabriola.com,+39023538519,info@cooperativalabriola.it,['low_review']
https://www.tripadvisor.it/Restaurant_Review-g187849-d10243054-Reviews-Ghe_Sem_Monti-Milan_Lombardy.html,10243054,Ghe Sem Monti,3.9,495,"Via Vincenzo Monti 26, 20123 Milano Italia",Via Vincenzo Monti,26,20123,Milano,45.4682134,9.1729884,1,276,€€-€€€,2,['Italiana'],1,1,0,1,1,1,1,1,0,ghesemmilano.it,+390245374300,,[]
https://www.tripadvisor.it/Restaurant_Review-g187849-d10247871-Reviews-Vinoir-Milan_Lombardy.html,10247871,Vinoir,4.2,122,"Ripa di Porta Ticinese 93, 20143 Milano Italia",Ripa di Porta Ticinese,93,20143,Milano,45.4494091,9.1646176,1,76,€€-€€€,2,['Italiana'],1,1,0,1,1,0,1,1,1,vinoir.com/cookeries,+390239811202,vinoir@vinoir.com,['no_hours']
https://www.tripadvisor.it/Restaurant_Review-g187849-d10248811-Reviews-Sushi_Yao_Isola_Milano-Milan_Lombardy.html,10248811,Sushi Yao Ristorante,3.9,130,"Via Sebenico, 14, 20124 Milano Italia",Via Sebenico,14,20124,Milano,45.4877284,9.1914862,1,112,€€-€€€,2,"['Cinese', 'Giapponese']",1,1,0,1,1,1,1,1,1,instagram.com/yaomilano,+39026081604,eldahu519@gmail.com,[]
https://www.tripadvisor.it/Restaurant_Review-g187849-d1024886-Reviews-Lacerba_Milano-Milan_Lombardy.html,1024886,Lacerba Milano,4.1,1124,"Via Orti, 4, 20122 Milano Italia",Via Orti,4,20122,Milano,45.4548533,9.1989742,1,342,€€-€€€,2,['Italiana'],1,1,0,1,1,1,1,1,1,lacerba.it,+39025455475,info@lacerba.it,[]
https://www.tripadvisor.it/Restaurant_Review-g187849-d10250990-Reviews-Different_Burger-Milan_Lombardy.html,10250990,Different Burger,3.3,21,"Via Vetere, 7, 20123 Milano Italia",Via Vetere,7,20123,Milano,45.4562081,9.1810386,1,9,€€-€€€,2,"['Italiana', 'Americana']",1,1,0,1,1,0,1,1,1,different-burger.com,+390258111226,info@different-burger.com,['no_hours']
https://www.tripadvisor.it/Restaurant_Review-g187849-d1025103-Reviews-Ristorante_Rigolo_dal_1958-Milan_Lombardy.html,1025103,Ristorante Rigolo dal 1958,4.0,511,"Via Solferino, 11 Angolo Largo Treves, 20121 Milano Italia",Via Solferino,11,20121,Milano,,,0,172,€€-€€€,2,"['Italiana', 'Pesce']",1,1,0,1,1,1,1,1,1,ristoranterigolo.it,+390286463220,info@rigolo.it,['missing_coordinates']
https://www.tripadvisor.it/Restaurant_Review-g187849-d1025413-Reviews-Ristorante_Al_Mercante-Milan_Lombardy.html,1025413,Ristorante Al Mercante,3.8,842,"Via Cesare Cantù, 7 angolo Piazza Pio XI, 20123 Milano Italia",Via Cesare Cantù,7,20123,Milano,,,0,233,€€-€€€,2,"['Italiana', 'Pesce']",1,1,0,1,1,1,1,1,1,ristorantealmercante.it,+39028052198,info@ristorantealmercante.it,['missing_coordinates']
https://www.tripadvisor.it/Restaurant_Review-g187849-d10255882-Reviews-Seoul_Ristorante_Coreano-Milan_Lombardy.html,10255882,Seoul Ristorante Coreano,4.5,328,"Corso Cristoforo Colombo 4, 20144 Milano Italia",Corso Cristoforo Colombo,4,20144,Milano,45.4546878,9.1716125,1,231,€€-€€€,2,"['Asiatica', 'Coreana']",1,1,0,1,1,1,1,1,1,seoul-ristorante-coreano-milano.eatbu.com/?lang=en#,+39028372130,ristorantecoreanoseoul@gmail.com,[]
https://www.tripadvisor.it/Restaurant_Review-g187849-d10257861-Reviews-D_Karbon_Limon_2-Milan_Lombardy.html,10257861,D'Karbon & Limon 2,3.6,51,"Piazza Tirana 22, 20147 Milano Italia",Piazza Tirana,22,20147,Milano,45.4432358,9.1290256,1,37,€€-€€€,2,"['Peruviana', 'Sudamericana']",1,1,0,1,1,1,1,1,1,ristorantedkarbonylimon.it/sede-tirana-22,+39024156544,ristorantedkarbonylimon@gmail.it,[]
https://www.tripadvisor.it/Restaurant_Review-g187849-d1025805-Reviews-Maison_Milano-Milan_Lombardy.html,1025805,Maison Milano,3.9,1340,"Via Ludovico Montegani 68, 20141 Milano Italia",Via Ludovico Montegani,68,20141,Milano,,,0,390,€€-€€€,2,['Italiana'],1,1,0,1,1,1,1,1,1,maisonmilano.it,+390289540234,info@maisonmilano.it,['missing_coordinates']
https://www.tripadvisor.it/Restaurant_Review-g187849-d10258330-Reviews-Porter_House-Milan_Lombardy.html,10258330,Porter House,3.9,120,"Via Pompeo Leoni, 5, 20141 Milano Italia",Via Pompeo Leoni,5,20141,Milano,45.4436602,9.1948504,1,35,€,1,"['Italiana', 'Americana']",1,1,0,1,1,1,1,1,1,porterhousemilano.it,+390255230797,porterhousemilano@gmail.com,[]
https://www.tripadvisor.it/Restaurant_Review-g187849-d10258741-Reviews-Excalibar-Milan_Lombardy.html,10258741,Excalibar,3.3,3,"Via Riccardo Pitteri 56, 20134 Milano Italia",Via Riccardo Pitteri,56,20134,Milano,45.475064,9.248082,1,,,,[],1,1,1,1,1,0,0,0,0,,,,"['low_review', 'no_hours']"
https://www.tripadvisor.it/Restaurant_Review-g187849-d10266236-Reviews-Morso-Milan_Lombardy.html,10266236,Morso,4.3,137,"Via Montebello 7 Angolo Via San Marco, 20121 Milano Italia",Via Montebello,7,20121,Milano,,,0,21,€,1,"['Italiana', 'Americana']",1,1,0,1,1,1,1,1,1,facebook.com/Morso-Burger-565510176964715,+390236532375,info@morsoburger.it,['missing_coordinates']
https://www.tripadvisor.it/Restaurant_Review-g187849-d10270640-Reviews-Kiss_Bar-Milan_Lombardy.html,10270640,Kiss Bar,3.9,16,"Via Monte Popera 4, 20138 Milano Italia",Via Monte Popera,4,20138,Milano,45.4339479,9.2493932,1,8,€€-€€€,2,['Italiana'],1,1,0,1,1,1,1,1,1,facebook.com/KissBarRogoredo,+3902510198,kiss-bar@hotmail.it,[]
https://www.tripadvisor.it/Restaurant_Review-g187849-d1027157-Reviews-Trattoria_del_Nuovo_Macello-Milan_Lombardy.html,1027157,Trattoria del Nuovo Macello,4.0,976,"Via Cesare Lombroso 20, 20137 Milano Italia",Via Cesare Lombroso,20,20137,Milano,45.4560848,9.2259645,1,479,€€-€€€,2,['Italiana'],1,1,0,1,1,1,1,1,1,trattoriadelnuovomacello.it,+390259902122,info@trattoriadelnuovomacello.it,[]
https://www.tripadvisor.it/Restaurant_Review-g187849-d10274992-Reviews-Ciccio_Pizza-Milan_Lombardy.html,10274992,Ciccio Pizza,3.8,1587,"Via Teodosio 37 Vicino Stazione Metro Lambrate, 20131 Milano Italia",Via Teodosio,37,20131,Milano,,,0,455,€,1,"['Italiana', 'Pizza']",1,1,0,1,1,1,1,1,0,cicciopizza.com,+390249539720,,['missing_coordinates']
https://www.tripadvisor.it/Restaurant_Review-g187849-d10275079-Reviews-SUSHIMI_Pirelli-Milan_Lombardy.html,10275079,SUSHIMI - Pirelli,4.3,126,"Via Pirelli, 24, 20124 Milano Italia",Via Pirelli,24,20124,Milano,45.4842401,9.201132,1,75,€,1,"['Giapponese', 'Pesce']",1,1,0,1,1,1,1,1,1,sushimi.com,+390236687707,sushimicom@gmail.com,[]
https://www.tripadvisor.it/Restaurant_Review-g187849-d10276121-Reviews-Chiringuito_San_Siro-Milan_Lombardy.html,10276121,Chiringuito San Siro,3.0,46,"Piazzale Dello Sport, 3, 20151 Milano Italia",Piazzale Dello Sport,3,20151,Milano,45.4804864,9.1258159,1,19,€€-€€€,2,[],1,1,0,1,1,1,1,0,1,,+393338285248,chiringuitosansiro@gmail.com,[]
https://www.tripadvisor.it/Restaurant_Review-g187849-d10281901-Reviews-Pizzeria_Tom_Jerry-Milan_Lombardy.html,10281901,Pizzeria Tom&Jerry,3.3,12,"Via Val d'Intelvi 12, 20152 Milano Italia",Via Val d'Intelvi,12,20152,Milano,45.4595675,9.0882996,1,2,,,"['Italiana', 'Pizza']",1,1,0,1,1,0,1,0,0,,+390245329552,,['no_hours']
https://www.tripadvisor.it/Restaurant_Review-g187849-d10282092-Reviews-Hayama_Sushi-Milan_Lombardy.html,10282092,Hayama Sushi,3.8,54,"Via Lorenteggio, 157, 20146 Milano Italia",Via Lorenteggio,157,20146,Milano,45.4502616,9.1380218,1,76,€€-€€€,2,"['Cinese', 'Giapponese']",1,1,0,1,1,1,1,1,0,hayama.it,+393349585754,,[]
https://www.tripadvisor.it/Restaurant_Review-g187849-d10293237-Reviews-Ristorante_Pizzeria_Unica-Milan_Lombardy.html,10293237,Ristorante Pizzeria Unica,2.6,25,"Via Giovanni Battista Giorgini 7 Zona Musocco, 20151 Milano Italia",Via Giovanni Battista Giorgini,7,20151,Milano,45.5006575,9.1240407,1,29,€,1,"['Italiana', 'Pizza']",1,1,0,1,1,1,1,0,0,,+390233490737,,[]
https://www.tripadvisor.it/Restaurant_Review-g187849-d10293441-Reviews-CotoliAMO-Milan_Lombardy.html,10293441,CotoliAMO,4.5,96,"Via Luigi Galvani 12 presso Hotel Hilton, 20124 Milano Italia",Via Luigi Galvani,12,20124,Milano,,,0,129,€€-€€€,2,['Italiana'],1,1,0,1,1,1,1,1,1,hilton.com/it/hotels/milhitw-hilton-milan/dining/cotoliamo,+390269833073,milan_info@hilton.com,['missing_coordinates']
https://www.tripadvisor.it/Restaurant_Review-g187849-d10305801-Reviews-Panini_Durini_Gae_Aulenti-Milan_Lombardy.html,10305801,Panini Durini,3.6,106,"Piazza Gae Aulenti 4 Porta Nuova, Milano Italia",Piazza Gae Aulenti,4,,,,,0,48,€,1,['Italiana'],1,1,0,1,1,1,1,1,1,paninidurini.it,+390265560841,info@paninidurini.it,['missing_coordinates']
https://www.tripadvisor.it/Restaurant_Review-g187849-d10320496-Reviews-Morgante_Cocktail_Food-Milan_Lombardy.html,10320496,Morgante Cocktail & Food,3.9,282,"Vicolo Privato Lavandai 2/A Alzaia Naviglio Grande, 20144 Milano Italia",Vicolo Privato Lavandai,2/A,20144,Milano,,,0,193,€€€€,4,['Italiana'],1,1,0,1,1,1,1,1,1,morgantecocktail.com,+390235940879,info@morgantecocktail.com,['missing_coordinates']
https://www.tripadvisor.it/Restaurant_Review-g187849-d10325899-Reviews-Champions_Bar_Tabacchi-Milan_Lombardy.html,10325899,Champions Bar Tabacchi,3.9,12,"Via Sebastiano Veniero 48, 20148 Milano Italia",Via Sebastiano Veniero,48,20148,Milano,45.4807694,9.1442714,1,8,€,1,['Italiana'],1,1,0,1,1,0,0,0,0,,,,['no_hours']
https://www.tripadvisor.it/Restaurant_Review-g187849-d10328260-Reviews-Caffe_Piazza-Milan_Lombardy.html,10328260,Caffe Piazza,4.3,19,"Via Luigi Settembrini 30, 20124 Milano Italia",Via Luigi Settembrini,30,20124,Milano,45.4825371,9.2069653,1,9,€,1,['Italiana'],1,1,0,1,1,0,1,0,0,,+390229531832,,['no_hours']
https://www.tripadvisor.it/Restaurant_Review-g187849-d10331311-Reviews-Vista_Darsena-Milan_Lombardy.html,10331311,Vista Darsena,2.7,299,"Viale Gabriele D'Annunzio, 20, 20123 Milano Italia",Viale Gabriele D'Annunzio,20,20123,Milano,45.4531823,9.1766749,1,98,€,1,['Italiana'],1,1,0,1,1,1,1,1,1,facebook.com/vistadarsena,+393293039686,info@vistadarsena.it,[]
https://www.tripadvisor.it/Restaurant_Review-g187849-d10331920-Reviews-Oyster_Samba-Milan_Lombardy.html,10331920,Oyster & Samba,4.0,82,"Via Angelo Poliziano 3, 20136 Milano Italia",Via Angelo Poliziano,3,20136,Milano,,,0,237,€€-€€€,2,"['Italiana', 'Pesce']",1,1,0,1,1,1,1,1,1,ostricheria.it,+390236585704,oysteresamba@gmail.com,['missing_coordinates']
https://www.tripadvisor.it/Restaurant_Review-g187849-d10335781-Reviews-Barabba_Pizzeria_Milano-Milan_Lombardy.html,10335781,Barabba Pizza Bistrot,4.0,288,"Via Mosè Bianchi 3, 20149 Milano Italia",Via Mosè Bianchi,3,20149,Milano,45.5236778,9.3255753,1,154,€€-€€€,2,"['Italiana', 'Pizza']",1,1,0,1,1,1,1,1,1,pizzeriabarabba.it/home,+390236508440,info@pizzeriabarabba.it,[]
https://www.tripadvisor.it/Restaurant_Review-g187849-d10335823-Reviews-Cheers_Cafe-Milan_Lombardy.html,10335823,Cheers Cafe,4.8,12,"Viale Monza, 147, 20125 Milano Italia",Viale Monza,147,20125,Milano,45.5016942,9.2211756,1,3,,,"['Italiana', 'Caffetteria']",1,1,0,1,1,0,1,1,0,it-it.facebook.com/cheers-cafe-424321240996840,+393888651255,,['no_hours']
https://www.tripadvisor.it/Restaurant_Review-g187849-d10336086-Reviews-Crazy_Pizza-Milan_Lombardy.html,10336086,Crazy Pizza,2.6,11,"Via Marignano 1, 20138 Milano Italia",Via Marignano,1,20138,Milano,45.4258226,9.2520719,1,3,€,1,"['Italiana', 'Pizza']",1,1,0,1,1,0,0,0,0,,,,['no_hours']
https://www.tripadvisor.it/Restaurant_Review-g187849-d10336146-Reviews-Fratelli_Coppola_Milano-Milan_Lombardy.html,10336146,Fratelli Coppola - Milano,4.0,574,"Via Alfredo Cappellini 23, 20124 Milano Italia",Via Alfredo Cappellini,23,20124,Milano,45.4816272,9.2024118,1,404,€€-€€€,2,"['Italiana', 'Pizza']",1,1,0,1,1,1,1,1,1,fratellicoppola.net,+390266985006,info@fratellicoppola.net,[]
https://www.tripadvisor.it/Restaurant_Review-g187849-d10336408-Reviews-La_Casa_Dell_arancina-Milan_Lombardy.html,10336408,La Casa Dell'arancina,3.6,14,"Piazza Guglielmo Miani 2 Piazza, 20143 Milano Italia",Piazza Guglielmo Miani,2,20143,Milano,,,0,5,€,1,"['Italiana', 'Gastronomia']",1,1,0,1,1,1,1,1,0,facebook.com/La-Casa-DellArancina-771010193044321,+390239626962,,['missing_coordinates']
https://www.tripadvisor.it/Restaurant_Review-g187849-d10337884-Reviews-DesinoLento_Bistro-Milan_Lombardy.html,10337884,DesinoLento Bistrò,3.6,78,"via Filippo Turati n 6, 20121 Milano Italia",via Filippo Turati n,6,20121,Milano,45.4763179,9.1949548,1,83,€€-€€€,2,"['Italiana', 'Mediterranea']",1,1,0,1,1,1,1,1,1,desinolento.com,+390245482055,amministrazione.turati@desinolento.com,[]
https://www.tripadvisor.it/Restaurant_Review-g187849-d10338737-Reviews-Pasta_d_Autore-Milan_Lombardy.html,10338737,Pasta d'Autore,4.5,1503,"Corso di Porta Ticinese, 16 Next to Colonne S. Lorenzo, 20123 Milano Italia",Corso di Porta Ticinese,16,20123,Milano,,,0,1200,€,1,"['Italiana', 'Pizza']",1,1,0,1,1,1,1,1,1,pastadautoremilano.it,+390235953304,info@pastadautoremilano.it,['missing_coordinates']
https://www.tripadvisor.it/Restaurant_Review-g187849-d10339600-Reviews-Fan_Sushi_Bar-Milan_Lombardy.html,10339600,Fan Sushi Bar,3.3,18,"Via Padova 157, 20127 Milano Italia",Via Padova,157,20127,Milano,45.5001818,9.235122,1,6,€,1,"['Cinese', 'Giapponese']",1,1,0,1,1,1,1,0,0,,+390226827311,,[]
https://www.tripadvisor.it/Restaurant_Review-g187849-d1034487-Reviews-Al_Tempio_D_Oro-Milan_Lombardy.html,1034487,Al Tempio D'Oro,3.5,352,"Via delle Leghe 23, 20127 Milano Italia",Via delle Leghe,23,20127,Milano,45.4926346,9.217102,1,40,€,1,"['Italiana', 'Pesce']",1,1,0,1,1,1,1,1,1,altempiodoro.it,+393939444548,info@altempiodoro.it,[]
https://www.tripadvisor.it/Restaurant_Review-g187849-d1034491-Reviews-San_Tomaso-Milan_Lombardy.html,1034491,San Tomaso,4.1,410,"Via San Tomaso 5, 20121 Milano Italia",Via San Tomaso,5,20121,Milano,45.4672573,9.1848736,1,223,€,1,"['Italiana', 'Mediterranea']",1,1,0,1,1,1,1,1,1,thefork.com/restaurant/taberna-san-tomaso-r404313,+3902874510,tabernasantomaso5@gmail.com,[]
https://www.tripadvisor.it/Restaurant_Review-g187849-d1034492-Reviews-Al_Cantinone-Milan_Lombardy.html,1034492,Al Cantinone,4.0,1918,"Via Agnello 19, 20121 Milano Italia",Via Agnello,19,20121,Milano,45.4660054,9.1917564,1,844,€€-€€€,2,"['Italiana', 'Europea']",1,1,0,1,1,1,1,1,1,alcantinone.it/le-location/agnello,+3902863015,info@alcantinone.it,[]
https://www.tripadvisor.it/Restaurant_Review-g187849-d10353637-Reviews-Lars_Milano-Milan_Lombardy.html,10353637,Lars Milano,3.9,213,"Via Giovanni Enrico Pestalozzi, 4, 20143 Milano Italia",Via Giovanni Enrico Pestalozzi,4,20143,Milano,45.4464659,9.1541222,1,118,€€-€€€,2,"['Italiana', 'Americana']",1,1,0,1,1,1,1,1,1,larsmilano.it,+39028136016,info@larsmilano.it,[]
https://www.tripadvisor.it/Restaurant_Review-g187849-d1035872-Reviews-San_Mina-Milan_Lombardy.html,1035872,San Mina,4.4,539,"Via Edolo 7, 20125 Milano Italia",Via Edolo,7,20125,Milano,45.4922987,9.206262,1,276,€,1,"['Italiana', 'Pizza']",1,1,0,1,1,1,1,1,0,pizzeriasanmina.it,+393288789849,,[]
https://www.tripadvisor.it/Restaurant_Review-g187849-d10366287-Reviews-Makiyo_Sushi_Pizza_Bovisa-Milan_Lombardy.html,10366287,Makiyo Sushi & Pizza Bovisa,3.2,20,"Via Giovita Scalvini 16, 20158 Milano Italia",Via Giovita Scalvini,16,20158,Milano,45.499334,9.1688105,1,28,€,1,"['Giapponese', 'Pesce']",1,1,0,1,1,1,1,1,0,makiyomilano.it,+390239320797,,[]
https://www.tripadvisor.it/Restaurant_Review-g187849-d10367053-Reviews-We_Uaglio-Milan_Lombardy.html,10367053,We Uagliò,3.8,152,"Via Raimondo Montecuccoli, 19, 20147 Milano Italia",Via Raimondo Montecuccoli,19,20147,Milano,45.4585783,9.1312621,1,88,€€-€€€,2,"['Italiana', 'Pizza']",1,1,0,1,1,1,1,1,1,weuaglio.it,+393283810745,weuaglio@gmail.com,[]
https://www.tripadvisor.it/Restaurant_Review-g187849-d10368705-Reviews-Sushi_II-Milan_Lombardy.html,10368705,Sushi II,3.6,180,"Via Galvano Fiamma, 31, 20129 Milano Italia",Via Galvano Fiamma,31,20129,Milano,45.4645504,9.2113191,1,113,€,1,"['Cinese', 'Giapponese']",1,1,0,1,1,1,1,1,0,sushi2viafiamma.com,+390270104646,,[]
https://www.tripadvisor.it/Restaurant_Review-g187849-d10371400-Reviews-Signori_Si_Nasce-Milan_Lombardy.html,10371400,Signori Si Nasce,3.9,125,"Via delle Forze Armate 28, 20147 Milano Italia",Via delle Forze Armate,28,20147,Milano,45.4630304,9.1304863,1,20,€,1,"['Italiana', 'Pizza']",1,1,0,1,1,1,1,1,1,signorisinasce.com,+390240072524,paolo.mennella@fastwebnet.it,[]
https://www.tripadvisor.it/Restaurant_Review-g187849-d10374486-Reviews-Padova_Pizza_Kebab-Milan_Lombardy.html,10374486,Padova Pizza Kebab,3.7,3,"Via Padova 80, 20131 Milano Italia",Via Padova,80,20131,Milano,45.492432,9.2251855,1,4,,,"['Pizza', 'Turca']",1,1,1,1,1,0,1,0,0,,+393240568906,,"['low_review', 'no_hours']"
https://www.tripadvisor.it/Restaurant_Review-g187849-d10375715-Reviews-Chidori-Milan_Lombardy.html,10375715,Chidori,3.5,67,"Via Solari, 23, 20144 Milano Italia",Via Solari,23,20144,Milano,45.4553596,9.1637264,1,46,€,1,"['Cinese', 'Giapponese']",1,1,0,1,1,1,1,1,1,chidori.it,+39028376445,sushichidori2016@gmail.com,[]
https://www.tripadvisor.it/Restaurant_Review-g187849-d10378757-Reviews-Big_School-Milan_Lombardy.html,10378757,Big School,3.8,47,"Via Alcuino, 16 Zona Sempione, 20149 Milano Italia",Via Alcuino,16,20149,Milano,,,0,18,€,1,['Italiana'],1,1,0,1,1,0,1,1,0,bigschoolmilano.it,+390236564080,,"['no_hours', 'missing_coordinates']"
https://www.tripadvisor.it/Restaurant_Review-g187849-d10385156-Reviews-Enoteca_di_Mare-Milan_Lombardy.html,10385156,Enoteca di Mare Bistrot,4.6,938,"Via Menabrea, 12, 20159 Milano Italia",Via Menabrea,12,20159,Milano,45.4948188,9.1870858,1,680,€€-€€€,2,"['Pesce', 'Mediterranea']",1,1,0,1,1,1,1,1,1,mareinpasta.it,+39026883224,bistrot@enotecadimare.it,[]
https://www.tripadvisor.it/Restaurant_Review-g187849-d10385186-Reviews-Ristorante_Pizzeria_L_Atmosfera-Milan_Lombardy.html,10385186,Ristorante Pizzeria L'Atmosfera,3.8,105,"Via Emilio de Marchi 52, 20125 Milano Italia",Via Emilio de Marchi,52,20125,Milano,45.5026618,9.2110721,1,39,€€-€€€,2,"['Italiana', 'Pizza']",1,1,0,1,1,0,1,1,1,ristorantepizzerialatmosfera.it,+39021552655,latmosfera@gmail.com,['no_hours']
https://www.tripadvisor.it/Restaurant_Review-g187849-d10385252-Reviews-Gennari_Pizzeria_Napoletana-Milan_Lombardy.html,10385252,Gennari Pizzeria Napoletana,1.8,4,"Viale Umbria 101, 20135 Milano Italia",Viale Umbria,101,20135,Milano,45.4544085,9.2156191,1,16,€,1,"['Pizza', 'Mediterranea']",1,1,1,1,1,1,1,1,1,gennaripizzeria.it,+390236637664,gianni.marioalessio@libero.it,['low_review']
https://www.tripadvisor.it/Restaurant_Review-g187849-d10387785-Reviews-Trattoria_Pizzeria_Al_Posto_Giusto-Milan_Lombardy.html,10387785,"Trattoria Pizzeria ""Al Posto Giusto""",4.4,104,"Via Urbino 27, 20161 Milano Italia",Via Urbino,27,20161,Milano,45.5302715,9.1699936,1,52,€,1,"['Italiana', 'Pizza']",1,1,0,1,1,1,1,1,0,facebook.com/trattoriapizzeriaalpostogiusto,+39026456990,,[]
https://www.tripadvisor.it/Restaurant_Review-g187849-d10392959-Reviews-Equo_Caffe-Milan_Lombardy.html,10392959,Equo Caffe,4.6,42,"Via San Maurilio, 1, 20123 Milano Italia",Via San Maurilio,1,20123,Milano,45.4617789,9.1846125,1,30,€€-€€€,2,"['Italiana', 'Caffetteria']",1,1,0,1,1,1,1,1,1,facebook.com/equocaffe,+390272095312,equocaffemilano@gmail.com,[]
https://www.tripadvisor.it/Restaurant_Review-g187849-d10396113-Reviews-La_Piada_Di_Una_Volta_2-Milan_Lombardy.html,10396113,La Piada Di Una Volta 2,4.1,19,"Corso 22 Marzo, 36, 20135 Milano Italia",Corso,22,20135,Milano,45.46222,9.2237866,1,5,€,1,['Italiana'],1,1,0,1,1,1,1,1,1,lapiadadiunavolta.it,+393896282169,lapiadadiunavolta2@gmail.com,[]
https://www.tripadvisor.it/Restaurant_Review-g187849-d10397643-Reviews-Tavernacolo_Milano_Biancospini-Milan_Lombardy.html,10397643,Tavernacolo Milano Biancospini,4.3,25,"Via dei Biancospini, 4, 20146 Milano Italia",Via dei Biancospini,4,20146,Milano,45.448405,9.139746,1,51,€€-€€€,2,['Italiana'],1,1,0,1,1,1,1,1,1,facebook.com/tavernacolomilanobiancospini,+390236565391,milano-biancospini@tavernacolo.it,[]
https://www.tripadvisor.it/Restaurant_Review-g187849-d10399874-Reviews-Pizzeria_Napoletana_Daniele-Milan_Lombardy.html,10399874,Pizzeria Napoletana Daniele,4.3,273,"Via Galeazzo Alessi, 1, 20123 Milano Italia",Via Galeazzo Alessi,1,20123,Milano,45.4559387,9.1765967,1,91,€,1,"['Italiana', 'Pizza']",1,1,0,1,1,1,1,1,1,pizzerianapoletanadanieledue.com,+39028356442,daniele_alessandro@hotmail.it,[]
https://www.tripadvisor.it/Restaurant_Review-g187849-d10400887-Reviews-Ristorante_Sciue-Milan_Lombardy.html,10400887,Ristorante Sciue',3.5,309,"Via Friuli 46, 20135 Milano Italia",Via Friuli,46,20135,Milano,45.4541198,9.2133409,1,119,€€-€€€,2,"['Italiana', 'Pesce']",1,1,0,1,1,1,1,1,0,facebook.com/ilmareintavola/?hc_ref=PAGES_TIMELINE,+390247765346,,[]
https://www.tripadvisor.it/Restaurant_Review-g187849-d10417560-Reviews-Ristorante_Cinese_Dong_Bei_Si_Fang_Cai-Milan_Lombardy.html,10417560,Ristorante Cinese Dong Bei Si Fang Cai,4.0,10,"Via Carlo Imbonati 56, 20159 Milano Italia",Via Carlo Imbonati,56,20159,Milano,45.5031274,9.1812129,1,6,,,"['Cinese', 'Pesce']",1,1,0,1,1,0,1,0,0,,+390289051411,,['no_hours']
https://www.tripadvisor.it/Restaurant_Review-g187849-d10417586-Reviews-Pizzeria_Starita_Milano-Milan_Lombardy.html,10417586,Pizzeria Starita Milano,3.6,1220,"Via Giovanni Gherardini 1, 20145 Milano Italia",Via Giovanni Gherardini,1,20145,Milano,45.4767084,9.1701644,1,673,€,1,['Pizza'],1,1,0,1,1,1,1,1,0,pizzeriestarita.it/le-pizzerie/milano,+390272191879,,[]
https://www.tripadvisor.it/Restaurant_Review-g187849-d10425856-Reviews-Joy_Milano-Milan_Lombardy.html,10425856,Joy Milano,3.5,52,"Via Carlo Valvassori Peroni, 56, 20133 Milano Italia",Via Carlo Valvassori Peroni,56,20133,Milano,45.4796434,9.2376734,1,10,€,1,['Italiana'],1,1,0,1,1,1,1,1,0,joy.milano.it,+393669816519,,[]
https://www.tripadvisor.it/Restaurant_Review-g187849-d10428929-Reviews-Layali_Cafe_milano-Milan_Lombardy.html,10428929,Layali Cafe milano,4.8,80,"Via Achille Maiocchi, 30, 20129 Milano Italia",Via Achille Maiocchi,30,20129,Milano,45.4756254,9.2145991,1,63,€€€€,4,['Italiana'],1,1,0,1,1,1,1,1,1,layalicafemilano.com,+390235952568,layalicafemilano@gmail.com,[]
https://www.tripadvisor.it/Restaurant_Review-g187849-d10429162-Reviews-Rizzo_Come_A_Casa-Milan_Lombardy.html,10429162,Rizzo Come A Casa,4.6,1095,"Via Varesina 163, 20156 Milano Italia",Via Varesina,163,20156,Milano,45.5028773,9.1391781,1,833,€€-€€€,2,"['Italiana', 'Pesce']",1,1,0,1,1,1,1,1,1,rizzocomeacasa.com,+390233431159,info@rizzocomeacasa.com,[]
https://www.tripadvisor.it/Restaurant_Review-g187849-d10433163-Reviews-Canteen_Milano-Milan_Lombardy.html,10433163,Canteen Milano,3.2,914,"Via Archimede 10, 20129 Milano Italia",Via Archimede,10,20129,Milano,45.5589531,9.1380538,1,448,€€€€,4,"['Messicana', 'Pesce']",1,1,0,1,1,1,1,1,1,canteengroup.it,+39025463732,info@lucaguelficompany.com,[]
https://www.tripadvisor.it/Restaurant_Review-g187849-d10438044-Reviews-Consorzio_Stoppani-Milan_Lombardy.html,10438044,Consorzio Stoppani,4.0,628,"Via Antonio Stoppani 15, 20129 Milano Italia",Via Antonio Stoppani,15,20129,Milano,45.4750283,9.2139828,1,455,€€-€€€,2,['Italiana'],1,1,0,1,1,1,1,1,1,consorziostoppani.it,+393313936388,info@consorziostoppani.it,[]
https://www.tripadvisor.it/Restaurant_Review-g187849-d10441407-Reviews-Blue_Nami-Milan_Lombardy.html,10441407,Blue Nami,4.1,56,"Via Nicola D'apulia, 2, 20125 Milano Italia",Via Nicola D'apulia,2,20125,Milano,45.4934135,9.2164819,1,16,€€-€€€,2,"['Cinese', 'Giapponese']",1,1,0,1,1,1,1,1,1,bluenami.it,+393270847166,info@bluenami.it,[]
https://www.tripadvisor.it/Restaurant_Review-g187849-d10451145-Reviews-Kiku-Milan_Lombardy.html,10451145,Kiku,3.7,144,"Viale Corsica, 48, 20137 Milano Italia",Viale Corsica,48,20137,Milano,45.4619895,9.2294233,1,63,€€-€€€,2,"['Cinese', 'Giapponese']",1,1,0,1,1,0,1,1,0,ristorantekiku.com,+390270103250,,['no_hours']
https://www.tripadvisor.it/Restaurant_Review-g187849-d10453381-Reviews-Salumeria_Le_Tre_Regioni-Milan_Lombardy.html,10453381,Salumeria Le Tre Regioni,4.6,9,"Via Palermo, 16, 20121 Milano Italia",Via Palermo,16,20121,Milano,45.4754807,9.1845092,1,1,€,1,['Italiana'],1,1,1,1,1,1,1,1,0,facebook.com/251114078884122,+393206940909,,['low_review']
https://www.tripadvisor.it/Restaurant_Review-g187849-d10454388-Reviews-Ristorante_Mi_Barrunto-Milan_Lombardy.html,10454388,Ristorante Mi Barrunto,4.5,2,"Via Arqua' 15, 20131 Milano Italia",Via Arqua',15,20131,Milano,45.4928383,9.2276342,1,2,,,[],1,1,1,1,1,0,0,0,0,,,,"['low_review', 'no_hours']"
https://www.tripadvisor.it/Restaurant_Review-g187849-d10456355-Reviews-Open_Milano-Milan_Lombardy.html,10456355,Open Milano,3.4,45,"Viale Monte Nero 6 Primo piano, 20135 Milano Italia",Viale Monte Nero,6,20135,Milano,,,0,40,€,1,"['Italiana', 'Fast food']",1,1,0,1,1,0,1,1,1,openbyjoivy.com/location/bistrot-milano-porta-romana,+390283425610,ciao@openmilano.com,"['no_hours', 'missing_coordinates']"
https://www.tripadvisor.it/Restaurant_Review-g187849-d10457689-Reviews-Moon_Sushi-Milan_Lombardy.html,10457689,Moon Sushi,3.9,58,"Via Elio Adriano 98, 20128 Milano Italia",Via Elio Adriano,98,20128,Milano,,,0,25,€€-€€€,2,"['Cinese', 'Giapponese']",1,1,0,1,1,1,1,1,0,moon-sushi.it,+390236554434,,['missing_coordinates']
https://www.tripadvisor.it/Restaurant_Review-g187849-d10460420-Reviews-Micro-Milan_Lombardy.html,10460420,Micrô,3.2,6,"via Chiesa Rossa 55 All'interno del Parco Chiesa Rossa, 20142 Milano Italia",via Chiesa Rossa,55,20142,Milano,,,0,9,€,1,['Italiana'],1,1,1,1,1,1,1,1,1,spaziomicro.it,+393398346129,info@spaziomicro.it,"['low_review', 'missing_coordinates']"
https://www.tripadvisor.it/Restaurant_Review-g187849-d10460490-Reviews-La_Cantina_dei_Sapori-Milan_Lombardy.html,10460490,La Cantina dei Sapori,4.7,6,"Via Nicola Antonio Porpora 43, 20131 Milano Italia",Via Nicola Antonio Porpora,43,20131,Milano,45.4861419,9.2227433,1,8,€€-€€€,2,['Caffetteria'],1,1,1,1,1,0,1,1,1,facebook.com/cantinadeisaporimilano,+393472790086,contatti@cantinadeisapori.com,"['low_review', 'no_hours']"
https://www.tripadvisor.it/Restaurant_Review-g187849-d10467504-Reviews-Caffetteria_Santo_Stefano-Milan_Lombardy.html,10467504,Caffetteria Santo Stefano,2.4,13,"Piazza Santo Stefano 8, 20122 Milano Italia",Piazza Santo Stefano,8,20122,Milano,45.4621533,9.1943682,1,8,€,1,['Italiana'],1,1,0,1,1,0,1,0,0,,+390258328618,,['no_hours']
https://www.tripadvisor.it/Restaurant_Review-g187849-d10469378-Reviews-Caffe_Leonardo-Milan_Lombardy.html,10469378,Caffe Leonardo,4.2,38,"Via Dell'Orso 3, 20121 Milano Italia",Via Dell'Orso,3,20121,Milano,45.4690446,9.1871917,1,21,€,1,['Italiana'],1,1,0,1,1,1,1,1,0,facebook.com/Caff%C3%A8-Leonardo-472871589537146,+390236550411,,[]
https://www.tripadvisor.it/Restaurant_Review-g187849-d10475863-Reviews-Arte_della_Pasta_Fresca-Milan_Lombardy.html,10475863,Arte della Pasta Fresca,4.4,9,"Via Giacomo Quarenghi 23, 20151 Milano Italia",Via Giacomo Quarenghi,23,20151,Milano,45.4966013,9.1132997,1,2,€€-€€€,2,['Italiana'],1,1,1,1,1,0,1,1,0,facebook.com/264061980299163,+390233404072,,"['low_review', 'no_hours']"
https://www.tripadvisor.it/Restaurant_Review-g187849-d10476711-Reviews-N_Restaurant-Milan_Lombardy.html,10476711,N Restaurant,3.2,48,"Via Mecenate 121, 20138 Milano Italia",Via Mecenate,121,20138,Milano,45.4484736,9.2574629,1,32,€€-€€€,2,"['Italiana', 'Internazionale']",1,1,0,1,1,1,1,1,1,accorhotels.com/it/hotel-1137-novotel-milano-linate-aeroporto/index.shtml#origin=novotel,+3902507261,h1137-fb@accor.com,[]
https://www.tripadvisor.it/Restaurant_Review-g187849-d10478098-Reviews-Meeting_Lounge_Bar-Milan_Lombardy.html,10478098,Meeting Lounge Bar,4.0,7,"Via Sebastiano Veniero 40, 20148 Milano Italia",Via Sebastiano Veniero,40,20148,Milano,45.4810827,9.144533,1,2,€,1,"['Italiana', 'Africana']",1,1,1,1,1,1,1,1,0,facebook.com/meetingloungebarmilano,+393662527812,,['low_review']
https://www.tripadvisor.it/Restaurant_Review-g187849-d10481190-Reviews-Ci_vuole_un_Drink-Milan_Lombardy.html,10481190,Ci vuole un Drink,4.7,21,"Via Martiri Oscuri 3, 20125 Milano Italia",Via Martiri Oscuri,3,20125,Milano,45.4947099,9.2183876,1,14,€,1,"['Italiana', 'Caffetteria']",1,1,0,1,1,1,1,1,1,civuoleundrink.it,+393664520389,info@civuoleundrink.it,[]
https://www.tripadvisor.it/Restaurant_Review-g187849-d10481514-Reviews-Wang_Jiao-Milan_Lombardy.html,10481514,Wang Jiao,3.6,106,"Viale Col Di Lana, 14, 20136 Milano Italia",Viale Col Di Lana,14,20136,Milano,45.45209,9.183377,1,23,€,1,"['Cinese', 'Pesce']",1,1,0,1,1,0,1,1,0,facebook.com/pages/Wang-Jiao/350174268508158,+390289402858,,['no_hours']
https://www.tripadvisor.it/Restaurant_Review-g187849-d10483108-Reviews-Croque_Monsieur-Milan_Lombardy.html,10483108,Croque Monsieur,3.5,36,"Via Carlo Farini 44, 20159 Milano Italia",Via Carlo Farini,44,20159,Milano,45.4909616,9.183956,1,27,€,1,"['Italiana', 'Francese']",1,1,0,1,1,0,1,1,0,facebook.com/1074626199253036,+390299247787,,['no_hours']
https://www.tripadvisor.it/Restaurant_Review-g187849-d10484097-Reviews-Istanbul_Gorla_Kebap-Milan_Lombardy.html,10484097,Istanbul Gorla Kebap,2.2,5,"Viale Monza 154, 20127 Milano Italia",Viale Monza,154,20127,Milano,45.5059371,9.2228967,1,7,€,1,"['Pizza', 'Asiatica']",1,1,1,1,1,0,1,1,0,facebook.com/392703440740379,+393899985501,,"['low_review', 'no_hours']"
https://www.tripadvisor.it/Restaurant_Review-g187849-d10484180-Reviews-Novotel_Milano_Linate-Milan_Lombardy.html,10484180,NRestaurant Novotel Milano Linate,3.3,56,"Via Mecenate 121 c/o Hotel Novotel Milano Linate, 20138 Milano Italia",Via Mecenate,121,20138,Milano,,,0,30,€€-€€€,2,"['Italiana', 'Pesce']",1,1,0,1,1,1,1,1,1,all.accor.com/hotel/1137/index.it.shtml,+3902507261,H1137@accor.com,['missing_coordinates']
https://www.tripadvisor.it/Restaurant_Review-g187849-d10489033-Reviews-VersoVerde-Milan_Lombardy.html,10489033,Versoverde Bistrot,4.3,172,"Alzaia Naviglio Grande 150, 20144 Milano Italia",Alzaia Naviglio Grande,150,20144,Milano,45.4471154,9.1520273,1,69,€€-€€€,2,"['Italiana', 'Mediterranea']",1,1,0,1,1,1,1,1,1,versoverde.it,+390236638980,info@versoverde.it,[]
https://www.tripadvisor.it/Restaurant_Review-g187849-d1049989-Reviews-Ristorante_La_Brisa-Milan_Lombardy.html,1049989,Ristorante La Brisa,4.1,701,"Via Brisa, 15, 20123 Milano Italia",Via Brisa,15,20123,Milano,45.4653793,9.1803204,1,199,€€€€,4,"['Italiana', 'Pesce']",1,1,0,1,1,1,1,1,1,ristorantelabrisa.it,+390286450521,info@ristorantelabrisa.it,[]
https://www.tripadvisor.it/Restaurant_Review-g187849-d1050962-Reviews-Kandoo_Restaurant-Milan_Lombardy.html,1050962,Kandoo Restaurant,4.4,677,"Viale Corsica 38, 20137 Milano Italia",Viale Corsica,38,20137,Milano,45.4619911,9.2281635,1,362,€€-€€€,2,"['Giapponese', 'Pesce']",1,1,0,1,1,1,1,1,1,kandoosushimilano.it,+390270126079,kandoo2005@gmail.com,[]
https://www.tripadvisor.it/Restaurant_Review-g187849-d10510462-Reviews-Icon_Cafe_Milano-Milan_Lombardy.html,10510462,Icon Cafe Milano,4.5,575,"Via Losanna 15, 20154 Milano Italia",Via Losanna,15,20154,Milano,45.4859759,9.1633648,1,158,€,1,['Italiana'],1,1,0,1,1,1,1,1,1,facebook.com/iconcafemilano,+393924604738,silviafaverio1960@gmail.com,[]
https://www.tripadvisor.it/Restaurant_Review-g187849-d10516917-Reviews-Bar_Caffe_Via_Rovereto-Milan_Lombardy.html,10516917,Bar Caffe Via Rovereto,4.6,0,"Via Rovereto 12, 20127 Milano Italia",Via Rovereto,12,20127,Milano,45.4949468,9.2199433,1,,€€-€€€,2,['Italiana'],1,1,1,1,0,0,0,0,0,,,,"['low_review', 'rating_with_zero_reviews', 'no_reviews', 'no_hours']"
https://www.tripadvisor.it/Restaurant_Review-g187849-d10517704-Reviews-Ristorante_Mi_Casa-Milan_Lombardy.html,10517704,Ristorante Mi Casa,3.3,4,"Via Oristano 14, 20128 Milano Italia",Via Oristano,14,20128,Milano,45.5052824,9.2289607,1,,€€-€€€,2,['Sudamericana'],1,1,1,1,1,0,1,1,0,facebook.com/Restaurante-Mi-Casa-585345758283864,+393272311593,,"['low_review', 'no_hours']"
https://www.tripadvisor.it/Restaurant_Review-g187849-d1052123-Reviews-Trattoria_Arlati_dal_1936-Milan_Lombardy.html,1052123,Trattoria Arlati dal 1936,4.4,1529,"Via Alberto Nota 47 Angolo Via San Glicerio, 20126 Milano Italia",Via Alberto Nota,47,20126,Milano,,,0,658,€€-€€€,2,"['Italiana', 'Mediterranea']",1,1,0,1,1,1,1,1,1,trattoriaarlati.com,+39026433327,info@trattoriaarlati.com,['missing_coordinates']
https://www.tripadvisor.it/Restaurant_Review-g187849-d10521998-Reviews-GianGusto-Milan_Lombardy.html,10521998,GianGusto Piadineria Artigianale,3.8,37,"Via Francesco Viganò, 4, 20124 Milano Italia",Via Francesco Viganò,4,20124,Milano,45.4819975,9.1897703,1,19,€,1,"['Italiana', 'Mediterranea']",1,1,0,1,1,1,1,1,1,giangusto.it/milano,+390263793594,info@giangusto.it,[]
https://www.tripadvisor.it/Restaurant_Review-g187849-d10524692-Reviews-Pizzeria_Il_Faraone-Milan_Lombardy.html,10524692,Pizzeria Il Faraone,2.9,15,"Via Orti, 7, 20122 Milano Italia",Via Orti,7,20122,Milano,45.4549359,9.1989759,1,1,€,1,['Pizza'],1,1,0,1,1,0,1,1,0,pizzeriailfaraone.com,+390254120316,,['no_hours']
https://www.tripadvisor.it/Restaurant_Review-g187849-d10531753-Reviews-Colorificio-Milan_Lombardy.html,10531753,Colorificio,3.2,20,"Via Cesare Cesariano n. 8, 20154 Milano Italia",Via Cesare Cesariano n.,8,20154,Milano,45.4775459,9.1752975,1,39,€€-€€€,2,['Italiana'],1,1,0,1,1,1,1,1,1,facebook.com/colorificiocesariano,+390236581986,colorificiosrl@gmail.com,[]
https://www.tripadvisor.it/Restaurant_Review-g187849-d10532204-Reviews-Spontini_Bicocca_Village-Milan_Lombardy.html,10532204,Spontini,2.5,200,"Via Friedrich von Hayek 1 Bicocca Village, 20126 Milano Italia",Via Friedrich von Hayek,1,20126,Milano,,,0,44,€,1,"['Italiana', 'Pizza']",1,1,0,1,1,1,1,1,1,pizzeriaspontini.it/pizzeria/milano-bicocca,+390266116346,bicocca@pizzeriaspontini.com,['missing_coordinates']
https://www.tripadvisor.it/Restaurant_Review-g187849-d1053302-Reviews-Al_Less-Milan_Lombardy.html,1053302,Al Less,3.5,506,"Viale Lombardia 28, 20131 Milano Italia",Viale Lombardia,28,20131,Milano,45.4830386,9.2238029,1,357,€€-€€€,2,['Italiana'],1,1,0,1,1,1,1,1,1,alless.it,+393455499830,info@alless.it,[]
https://www.tripadvisor.it/Restaurant_Review-g187849-d10535725-Reviews-Isola_Verde_Di_Mimmo_e_Anna-Milan_Lombardy.html,10535725,Isola Verde Di Mimmo e Anna,4.0,44,"Via Novara 1 Piazza Melozzo da Forli, 20147 Milano Italia",Via Novara,1,20147,Milano,,,0,5,€€-€€€,2,['Fast food'],1,1,0,1,1,0,1,0,0,,+393664441942,,"['no_hours', 'missing_coordinates']"
https://www.tripadvisor.it/Restaurant_Review-g187849-d1053854-Reviews-Refeel_Coffee_More-Milan_Lombardy.html,1053854,Refeel Coffee & More,3.3,451,"Viale Sabotino 20, 20135 Milano Italia",Viale Sabotino,20,20135,Milano,45.4507993,9.2009392,1,148,€€-€€€,2,"['Italiana', 'Americana']",1,1,0,1,1,1,1,1,1,refeelcoffeemore.it,+390258324227,info@refeelcoffeemore.it,[]
https://www.tripadvisor.it/Restaurant_Review-g187849-d10541178-Reviews-Kobe-Milan_Lombardy.html,10541178,Kobe,3.3,156,"Corso di Porta Ticinese 60, 20123 Milano Italia",Corso di Porta Ticinese,60,20123,Milano,45.455811,9.1805958,1,135,€,1,"['Cinese', 'Giapponese']",1,1,0,1,1,1,1,1,0,kobemilano.it,+390258105727,,[]
https://www.tripadvisor.it/Restaurant_Review-g187849-d10542528-Reviews-Piccola_Ischia_Pizzeria-Milan_Lombardy.html,10542528,Piccola Ischia Pizzeria,3.8,420,"Via Giovanni Battista Morgagni 7, 20129 Milano Italia",Via Giovanni Battista Morgagni,7,20129,Milano,45.4772841,9.2110165,1,164,€,1,"['Italiana', 'Pizza']",1,1,0,1,1,1,1,1,0,piccolaischia.it,+39022047613,,[]
https://www.tripadvisor.it/Restaurant_Review-g187849-d1055200-Reviews-Osteria_La_Vecchia_Lira-Milan_Lombardy.html,1055200,Osteria La Vecchia Lira,3.9,994,"Largo la Foppa 5, 20121 Milano Italia",Largo la Foppa,5,20121,Milano,45.478399,9.1848143,1,309,€€-€€€,2,"['Italiana', 'Mediterranea']",1,1,0,1,1,1,1,1,1,osteriavecchialira.it/en/home,+39026599136,info@osteriavecchialira.it,[]
https://www.tripadvisor.it/Restaurant_Review-g187849-d1055536-Reviews-Ristorante_Giannino_Dal_1899-Milan_Lombardy.html,1055536,Ristorante Giannino Dal 1899,4.3,303,"Via Vittor Pisani 6, 20124 Milano Italia",Via Vittor Pisani,6,20124,Milano,45.480955,9.1998644,1,245,€€€€,4,['Italiana'],1,1,0,1,1,1,1,1,1,gianninoristorante.it,+390236519520,info@gianninoristorante.it,[]
https://www.tripadvisor.it/Restaurant_Review-g187849-d1056379-Reviews-Mexicali-Milan_Lombardy.html,1056379,Mexicali,3.5,701,"Viale Ortles, 62, 20139 Milano Italia",Viale Ortles,62,20139,Milano,45.4390565,9.2036157,1,175,€€-€€€,2,"['Messicana', 'Americana']",1,1,0,1,1,1,1,1,1,mexicali.it,+390297374648,milanoortles@mexicali.it,[]
https://www.tripadvisor.it/Restaurant_Review-g187849-d1057074-Reviews-Ristorante_Pizzeria_Murales-Milan_Lombardy.html,1057074,Ristorante Pizzeria Murales,3.9,159,"Piazza Gramsci 6, 20154 Milano Italia",Piazza Gramsci,6,20154,Milano,45.4818313,9.1690712,1,56,€€-€€€,2,"['Italiana', 'Pizza']",1,1,0,1,1,1,1,1,0,ristorantemurales.it,+39023315019,,[]
https://www.tripadvisor.it/Restaurant_Review-g187849-d10582538-Reviews-Pierre_Cafe-Milan_Lombardy.html,10582538,Pierre Cafe,3.8,12,"Via Broletto 18, 20121 Milano Italia",Via Broletto,18,20121,Milano,45.4667076,9.1861478,1,5,€,1,"['Italiana', 'Caffetteria']",1,1,0,1,1,1,1,0,0,,+390272008432,,[]
https://www.tripadvisor.it/Restaurant_Review-g187849-d10587964-Reviews-Four_B-Milan_Lombardy.html,10587964,Four B,4.2,31,"Viale Bianca Maria, 4, 20129 Milano Italia",Viale Bianca Maria,4,20129,Milano,45.4635495,9.206731,1,74,€€€€,4,"['Italiana', 'Pesce']",1,1,0,1,1,0,1,1,1,hotelbiancamariamilano.it/it/Dining/four-b,+390283427500,info@hotelbiancamariamilano.it,['no_hours']
https://www.tripadvisor.it/Restaurant_Review-g187849-d10593775-Reviews-Cookingarage_Bistrot-Milan_Lombardy.html,10593775,Cookingarage Bistrot,4.8,18,"via Ala, 20159 Milano Italia",via Ala,,20159,Milano,45.5008718,9.1965205,1,24,€,1,['Italiana'],1,1,0,1,1,1,1,1,1,cookingarage.com,+393207046927,cookingarage@gmail.com,[]
https://www.tripadvisor.it/Restaurant_Review-g187849-d10600526-Reviews-Via_dalla_Spiga-Milan_Lombardy.html,10600526,Via dalla Spiga,3.9,37,"Viale San Michele del Carso 13, 20100 Milano Italia",Viale San Michele del Carso,13,20100,Milano,45.4644013,9.164438,1,4,€€-€€€,2,['Italiana'],1,1,0,1,1,1,1,1,1,viadallaspigamilano.it,+3902433004,clienti@viadallaspigamilano.it,[]
https://www.tripadvisor.it/Restaurant_Review-g187849-d10608187-Reviews-Umami-Milan_Lombardy.html,10608187,Umami,4.6,65,"Piazza Emilia 4, 20129 Milano Italia",Piazza Emilia,4,20129,Milano,45.4624936,9.2172393,1,32,€€-€€€,2,['Italiana'],1,1,0,1,1,1,1,1,0,facebook.com/umamimilano,+390291675285,,[]
https://www.tripadvisor.it/Restaurant_Review-g187849-d1060877-Reviews-Innocenti_Evasioni_Ristorante-Milan_Lombardy.html,1060877,Innocenti Evasioni Ristorante,3.9,1235,"Via Candiani 66, 20158 Milano Italia",Via Candiani,66,20158,Milano,45.4988698,9.4229707,1,963,€€€€,4,"['Italiana', 'Pesce']",1,1,0,1,1,1,1,1,1,innocentievasioni.com,+390233001882,tommaso.arrigoni@innocentievasioni.com,[]
https://www.tripadvisor.it/Restaurant_Review-g187849-d10619246-Reviews-Bonta_Piu_Lippi-Milan_Lombardy.html,10619246,Bontà Più - Lippi,3.2,62,"Via Filippino Lippi, 7, 20131 Milano Italia",Via Filippino Lippi,7,20131,Milano,45.4799325,9.2210772,1,75,€€-€€€,2,['Italiana'],1,1,0,1,1,1,1,1,0,it-it.facebook.com/BontaPiuDiaz,+390289096769,,[]
https://www.tripadvisor.it/Restaurant_Review-g187849-d10620020-Reviews-ZestEat-Milan_Lombardy.html,10620020,ZestEat,2.7,23,"Viale Bodio 37, Milano Italia",Viale Bodio,37,,,45.4976318,9.1676888,1,4,€€-€€€,2,"['Italiana', 'Europea']",1,1,0,1,1,0,0,0,0,,,,['no_hours']
https://www.tripadvisor.it/Restaurant_Review-g187849-d10621982-Reviews-All_Officina_Caffe_Cucina-Milan_Lombardy.html,10621982,All'Officina Caffe & Cucina,3.2,41,"Via San Nicolao 10, 20123 Milano Italia",Via San Nicolao,10,20123,Milano,45.4667811,9.1771078,1,14,€€-€€€,2,['Italiana'],1,1,0,1,1,1,1,1,1,facebook.com/Allofficinacc,+390284070696,allofficinacc@gmail.com,[]
https://www.tripadvisor.it/Restaurant_Review-g187849-d10622669-Reviews-Alkemia_Lounge_Cafe-Milan_Lombardy.html,10622669,Alkemia Lounge Cafe,3.6,26,"Corso XXII Marzo, 42, 20135 Milano Italia",Corso XXII Marzo,42,20135,Milano,,,0,20,€,1,"['Italiana', 'Internazionale']",1,1,0,1,1,0,1,1,1,alkemialoungecafe.it,+393487653194,info@alkemialoungecafe.it,"['no_hours', 'missing_coordinates']"
https://www.tripadvisor.it/Restaurant_Review-g187849-d10624965-Reviews-Bar_derby_tabaccheria-Milan_Lombardy.html,10624965,Bar derby tabaccheria,2.6,7,"Via Alfonso Capecelatro 81, 20148 Milano Italia",Via Alfonso Capecelatro,81,20148,Milano,45.4741877,9.1254461,1,2,€,1,['Italiana'],1,1,1,1,1,0,1,1,0,facebook.com/BarDerbyTabaccheria,+39024071475,,"['low_review', 'no_hours']"
https://www.tripadvisor.it/Restaurant_Review-g187849-d10628680-Reviews-Nuhar_Cafe-Milan_Lombardy.html,10628680,Nuhar Cafe,3.9,16,"Via Benedetto Marcello 3, 20124 Milano Italia",Via Benedetto Marcello,3,20124,Milano,45.4792014,9.2059095,1,6,€,1,['Italiana'],1,1,0,1,1,1,1,0,0,,+393408519449,,[]
https://www.tripadvisor.it/Restaurant_Review-g187849-d10638277-Reviews-Osteria_Braceria_La_Ciccia-Milan_Lombardy.html,10638277,Osteria Braceria La Ciccia,3.8,296,"Via Lecco, 15, 20124 Milano Italia",Via Lecco,15,20124,Milano,45.4784292,9.2055182,1,275,€€-€€€,2,"['Italiana', 'Steakhouse']",1,1,0,1,1,1,1,1,1,facebook.com/lacicciabraceriamilano/?_rdr,+390236553692,lacicciasrl@gmail.com,[]
https://www.tripadvisor.it/Restaurant_Review-g187849-d10640778-Reviews-Aki_me_Kedo-Milan_Lombardy.html,10640778,Aki me Kedo,3.4,86,"Via Ottavio Rinuccini, 1, 20125 Milano Italia",Via Ottavio Rinuccini,1,20125,Milano,45.4961529,9.2176513,1,69,€€-€€€,2,"['Peruviana', 'Pesce']",1,1,0,1,1,1,1,1,1,akimekedo.shop,+393534437953,chavezmoralesfrank@gmail.com,[]
https://www.tripadvisor.it/Restaurant_Review-g187849-d10642339-Reviews-Da_Charlie-Milan_Lombardy.html,10642339,Da Charlie,4.0,97,"Via Giuseppe Govone, 37, 20155 Milano Italia",Via Giuseppe Govone,37,20155,Milano,45.4902149,9.1660736,1,32,€,1,"['Italiana', 'Pizza']",1,1,0,1,1,0,1,1,0,facebook.com/RistoranteDaCharlie,+390299247383,,['no_hours']
https://www.tripadvisor.it/Restaurant_Review-g187849-d10643620-Reviews-Mieru_Mieru-Milan_Lombardy.html,10643620,Mieru Mieru,4.2,237,"Via Magolfa 14, 20143 Milano Italia",Via Magolfa,14,20143,Milano,45.4509344,9.1765852,1,107,€€-€€€,2,"['Italiana', 'Pesce']",1,1,0,1,1,1,1,1,1,mierumieru.it,+390289406320,info@mierumieru.it,[]
https://www.tripadvisor.it/Restaurant_Review-g187849-d1064729-Reviews-Il_Solferino-Milan_Lombardy.html,1064729,Il Solferino,4.4,2128,"Via Castelfidardo 2 Angolo Via Solferino, 20121 Milano Italia",Via Castelfidardo,2,20121,Milano,,,0,1163,€€€€,4,"['Italiana', 'Pesce']",1,1,0,1,1,1,1,1,1,ilsolferino.com,+390229005748,info@ilsolferino.com,['missing_coordinates']
https://www.tripadvisor.it/Restaurant_Review-g187849-d1065133-Reviews-Tomoyoshi-Milan_Lombardy.html,1065133,Tomoyoshi,4.0,152,"Via Nicola Antonio Porpora 109, 20131 Milano Italia",Via Nicola Antonio Porpora,109,20131,Milano,45.4859495,9.2271198,1,38,€€-€€€,2,"['Giapponese', 'Pesce']",1,1,0,1,1,1,1,1,0,tomoyoshiporpora.com,+39022619505,,[]
https://www.tripadvisor.it/Restaurant_Review-g187849-d1065218-Reviews-Ristorante_Rovello-Milan_Lombardy.html,1065218,Ristorante Rovello,3.8,645,"Via Ariberto 3, 20123 Milano Italia",Via Ariberto,3,20123,Milano,45.4575859,9.1748755,1,215,€€-€€€,2,"['Italiana', 'Mediterranea']",1,1,0,1,1,1,1,1,1,ristorante-rovello.it,+390272093709,rovello18@gmail.com,[]
https://www.tripadvisor.it/Restaurant_Review-g187849-d1065415-Reviews-Antica_Trattoria_della_Pesa-Milan_Lombardy.html,1065415,Antica Trattoria della Pesa,3.6,1136,"Viale Pasubio, 10, 20154 Milano Italia",Viale Pasubio,10,20154,Milano,45.4818046,9.1839372,1,359,€€€€,4,['Italiana'],1,1,0,1,1,1,1,1,1,anticatrattoriadellapesa.com,+39026555741,francisassi71@yahoo.it,[]
https://www.tripadvisor.it/Restaurant_Review-g187849-d1066167-Reviews-Ristorante_Galleria-Milan_Lombardy.html,1066167,Ristorante Galleria,4.3,2134,"Galleria Vittorio Emanuele II 75, 20121 Milano Italia",Galleria Vittorio Emanuele II,75,20121,Milano,45.4656804,9.1900266,1,1260,€€-€€€,2,"['Italiana', 'Pizza']",1,1,0,1,1,1,1,1,1,ristorantegalleria.it,+390286464912,info@ristorantegalleria.it,[]
https://www.tripadvisor.it/Restaurant_Review-g187849-d10664119-Reviews-Pasticceria_Renato-Milan_Lombardy.html,10664119,Pasticceria Renato,3.4,9,"Via Giovanni Pacini, 58 Zona Lambrate, 20131 Milano Italia",Via Giovanni Pacini,58,20131,Milano,45.4833909,9.2329374,1,6,,,[],1,1,1,1,1,1,1,1,1,pasticceriarenato.com,+39022666689,info@pasticceriarenato.com,['low_review']
https://www.tripadvisor.it/Restaurant_Review-g187849-d10671311-Reviews-Pizzeria_Meucci-Milan_Lombardy.html,10671311,Pizzeria Meucci,3.7,230,"Via Meravigli, 18 Via San Giovanni sul Muro di fronte al civico 18, 20123 Milano Italia",Via Meravigli,18,20123,Milano,,,0,52,€,1,"['Italiana', 'Pizza']",1,1,0,1,1,1,1,1,1,pizzeriameucci.it,+390286450526,ataides@tiscali.it,['missing_coordinates']
https://www.tripadvisor.it/Restaurant_Review-g187849-d1067362-Reviews-Just_India-Milan_Lombardy.html,1067362,Ristorante Indiano Just India,4.2,622,"Via B. Marcello, 34, 20124 Milano Italia",Via B. Marcello,34,20124,Milano,,,0,150,€€-€€€,2,['Indiana'],1,1,0,1,1,1,1,1,1,just-india.it,+390220480385,justindiamilano@gmail.com,['missing_coordinates']
https://www.tripadvisor.it/Restaurant_Review-g187849-d1067369-Reviews-Dongio-Milan_Lombardy.html,1067369,Dongio',4.1,1011,"Via Bernardino Corio 3, 20135 Milano Italia",Via Bernardino Corio,3,20135,Milano,45.4516365,9.2049095,1,244,€€-€€€,2,"['Italiana', 'Mediterranea']",1,1,0,1,1,1,1,1,1,dongio.it,+393492761011,ristodongio@gmail.com,[]
https://www.tripadvisor.it/Restaurant_Review-g187849-d1067524-Reviews-Il_Giardino_dei_Segreti-Milan_Lombardy.html,1067524,Il Giardino dei Segreti,3.9,1000,"Via Pisacane, 40, 20129 Milano Italia",Via Pisacane,40,20129,Milano,45.5232157,9.283259,1,219,€€-€€€,2,"['Italiana', 'Pesce']",1,1,0,1,1,1,1,1,1,ilgiardinodeisegreti.it,+390276008376,info@ilgiardinodeisegreti.it,[]
https://www.tripadvisor.it/Restaurant_Review-g187849-d1067525-Reviews-Pizzeria_del_Sole-Milan_Lombardy.html,1067525,Pizzeria del Sole,4.0,544,"Via Marochetti, 10, Milano Italia",Via Marochetti,,,,45.4391012,9.2252844,1,83,€,1,"['Italiana', 'Pizza']",1,1,0,1,1,1,1,1,0,pizzeriadelsole.it,+39025696035,,[]
https://www.tripadvisor.it/Restaurant_Review-g187849-d10679655-Reviews-Miga_Korean_Restaurant-Milan_Lombardy.html,10679655,Miga - Korean Restaurant,4.0,70,"Via Alessandro Tadino, 52, 20124 Milano Italia",Via Alessandro Tadino,52,20124,Milano,45.4819419,9.2105512,1,33,€€€€,4,"['Asiatica', 'Coreana']",1,1,0,1,1,1,1,1,0,facebook.com/migamilano,+393346769694,,[]
https://www.tripadvisor.it/Restaurant_Review-g187849-d1068819-Reviews-Baja_Sardinja-Milan_Lombardy.html,1068819,Baja Sardinja,3.9,972,"Via Tagliamento, 11 Corner Via Don Bosco, 20139 Milano Italia",Via Tagliamento,11,20139,Milano,,,0,209,€€-€€€,2,['Pesce'],1,1,0,1,1,1,1,1,0,facebook.com/RistoranteBajaSardinjaMilano,+39025695314,,['missing_coordinates']
https://www.tripadvisor.it/Restaurant_Review-g187849-d10691568-Reviews-Miniera_d_Oro_Ristorante_Pizzeria_Bar-Milan_Lombardy.html,10691568,Miniera d'Oro Ristorante Pizzeria Bar,1.1,1878,"Piazza Duca d'Aosta 14 Stazione centrale, 20124 Milano Italia",Piazza Duca d'Aosta,14,20124,Milano,45.4843022,9.204957,1,406,€€€€,4,['Pizza'],1,1,0,1,1,1,1,1,0,facebook.com/pages/Miniera-Doro-Milano/1450132798581424,+390236768270,,[]
https://www.tripadvisor.it/Restaurant_Review-g187849-d1069434-Reviews-Bianca-Milan_Lombardy.html,1069434,Bianca,4.3,752,"Via Bartolomeo Panizza 10, 20144 Milano Italia",Via Bartolomeo Panizza,10,20144,Milano,45.4649109,9.1631368,1,286,€€€€,4,"['Italiana', 'Pesce']",1,1,0,1,1,1,1,1,1,ristorantebianca.com,+390245409037,info@spaziobianca.it,[]
https://www.tripadvisor.it/Restaurant_Review-g187849-d1069435-Reviews-DE_SANTIS-Milan_Lombardy.html,1069435,De Santis / Milano Magenta,4.3,972,"Corso Magenta 9, 20123 Milano Italia",Corso Magenta,9,20123,Milano,45.4656271,9.1797063,1,321,€€-€€€,2,['Italiana'],1,1,0,1,1,1,1,1,1,paninidesantis.it,+390272095124,info@desantismilano.it,[]
https://www.tripadvisor.it/Restaurant_Review-g187849-d10700668-Reviews-Caffe_Beirut-Milan_Lombardy.html,10700668,Caffe Beirut,1.0,1,"Viale Monza 40, 20127 Milano Italia",Viale Monza,40,20127,Milano,45.4919631,9.2186397,1,,,,"['Libanese', 'Mediterranea']",1,1,1,1,1,0,1,1,0,facebook.com/Caff%C3%A8-Beirut-1017143005008252,+390284347581,,"['low_review', 'no_hours']"
https://www.tripadvisor.it/Restaurant_Review-g187849-d10700914-Reviews-Vineria_Tut_a_Post-Milan_Lombardy.html,10700914,Vineria Tut a Post,4.3,52,"Via Cesare Saldini, 2, 20133 Milano Italia",Via Cesare Saldini,2,20133,Milano,45.4706314,9.2273905,1,43,€€-€€€,2,['Italiana'],1,1,0,1,1,1,1,1,0,vineriatutapost.it,+390249635820,,[]
https://www.tripadvisor.it/Restaurant_Review-g187849-d10701333-Reviews-Koi_Japanese_Restaurant-Milan_Lombardy.html,10701333,Koi Japanese Restaurant,3.9,86,"Via Saverio Altamura 7, 20148 Milano Italia",Via Saverio Altamura,7,20148,Milano,45.4698501,9.1400718,1,70,€,1,"['Cinese', 'Giapponese']",1,1,0,1,1,1,1,1,0,sushikoi.it,+390223054575,,[]
https://www.tripadvisor.it/Restaurant_Review-g187849-d10718121-Reviews-Sushi_Kasai-Milan_Lombardy.html,10718121,Sushi Kasai,4.0,95,"Viale Tibaldi, 40, 20136 Milano Italia",Viale Tibaldi,40,20136,Milano,45.4437179,9.1816656,1,93,€€-€€€,2,"['Cinese', 'Giapponese']",1,1,0,1,1,1,1,1,1,sushikasai2016.wixsite.com/sushikasaimilano,+390297693053,sushikasai2016@gmail.com,[]
https://www.tripadvisor.it/Restaurant_Review-g187849-d10720769-Reviews-Misushi_restaurant-Milan_Lombardy.html,10720769,Misushi restaurant,4.2,295,"Viale Col di Lana 14, 20136 Milano Italia",Viale Col di Lana,14,20136,Milano,45.4519305,9.185392,1,282,€€-€€€,2,"['Cinese', 'Giapponese']",1,1,0,1,1,1,1,1,1,misushi.it,+390297384310,matteogin86@gmail.com,[]
https://www.tripadvisor.it/Restaurant_Review-g187849-d10721269-Reviews-La_Teglia_di_Traiano-Milan_Lombardy.html,10721269,La Teglia di Traiano,4.0,82,"Via Marco Ulpio Traiano 60, 20149 Milano Italia",Via Marco Ulpio Traiano,60,20149,Milano,45.4846671,9.1524728,1,31,€,1,"['Italiana', 'Pizza']",1,1,0,1,1,1,1,1,1,facebook.com/La-Teglia-DI-Traiano-1651829561800332,+390239545128,marina.sapunkova@hotmail.it,[]
https://www.tripadvisor.it/Restaurant_Review-g187849-d10726701-Reviews-Caffetteria_Panetteria_Novia-Milan_Lombardy.html,10726701,Caffetteria Panetteria Novia,3.5,10,"Via Vincenzo da Seregno 47, 20161 Milano Italia",Via Vincenzo da Seregno,47,20161,Milano,45.5242258,9.177306,1,1,€,1,['Italiana'],1,1,0,1,1,0,1,0,0,,+390239668102,,['no_hours']
https://www.tripadvisor.it/Restaurant_Review-g187849-d10733537-Reviews-Sushi_Bambu_Restaurant_All_You_Can_Eat-Milan_Lombardy.html,10733537,Ristorante Bambù,4.2,143,"Via Varesina 64, 20156 Milano Italia",Via Varesina,64,20156,Milano,45.4972233,9.1460129,1,96,€,1,"['Cinese', 'Giapponese']",1,1,0,1,1,1,1,1,1,sushibambu.it,+393778216835,bamburistorante@gmail.com,[]
https://www.tripadvisor.it/Restaurant_Review-g187849-d10735152-Reviews-Ripeat_Milano-Milan_Lombardy.html,10735152,Ripeat Milano,3.6,48,"Piazza Vetra 21, 20123 Milano Italia",Piazza Vetra,21,20123,Milano,45.4571863,9.1831707,1,33,€€-€€€,2,['Mediterranea'],1,1,0,1,1,1,1,1,1,ripeatmilanovetra.it,+393429430479,eatmilanosrl@gmail.com,[]
https://www.tripadvisor.it/Restaurant_Review-g187849-d10737306-Reviews-Chabad_House_Naar_Israel_Kosher_Meal_Plan-Milan_Lombardy.html,10737306,Chabad House Naar Israel - Kosher Meal Plan,4.6,0,"Piazza Castello 5, 20121 Milano Italia",Piazza Castello,5,20121,Milano,45.4684115,9.180545,1,,,,"['Italiana', 'Pizza']",1,1,1,1,0,0,1,0,1,,+393289631820,naarisrael@gmail.com,"['low_review', 'rating_with_zero_reviews', 'no_reviews', 'no_hours']"
https://www.tripadvisor.it/Restaurant_Review-g187849-d1073758-Reviews-Princi-Milan_Lombardy.html,1073758,Princi,3.3,1381,"Piazza Venticinque Aprile 5, 20154 Milano Italia",Piazza Venticinque Aprile,5,20154,Milano,45.4808802,9.1861377,1,415,€€-€€€,2,"['Italiana', 'Caffetteria']",1,1,0,1,1,1,1,1,1,princi.it,+390229060832,princi@princi.it,[]
https://www.tripadvisor.it/Restaurant_Review-g187849-d1074584-Reviews-Woodstock_3-Milan_Lombardy.html,1074584,Woodstock 3,3.9,621,"Via Vigevano 43-45, 20144 Milano Italia",Via Vigevano,43-45,20144,Milano,45.4531206,9.1716601,1,181,€,1,"['Italiana', 'Pizza']",1,1,0,1,1,1,1,1,0,woodstock-3.it,+39028373700,,[]
https://www.tripadvisor.it/Restaurant_Review-g187849-d10746705-Reviews-Di_Gennaro_Ristorante_Pizzeria-Milan_Lombardy.html,10746705,Di Gennaro Ristorante Pizzeria,3.4,1538,"Via Santa Radegonda 14 The Street Milano Duomo | a Design Boutique Hotel, 20121 Milano Italia",Via Santa Radegonda,14,20121,Milano,,,0,718,€€-€€€,2,"['Italiana', 'Pizza']",1,1,0,1,1,1,1,1,1,di-gennaro.it,+39028056108,info@di-gennaro.it,['missing_coordinates']
https://www.tripadvisor.it/Restaurant_Review-g187849-d1074697-Reviews-442_Sports_Pub-Milan_Lombardy.html,1074697,442 Sports Pub,3.8,185,"Via Giulio Cesare Procaccini 61, 20154 Milano Italia",Via Giulio Cesare Procaccini,61,20154,Milano,45.4815811,9.1677314,1,42,€,1,[],1,1,0,1,1,1,1,1,1,fourfourtwo.it,+390236631914,info@fourfourtwo.it,[]
https://www.tripadvisor.it/Restaurant_Review-g187849-d1074807-Reviews-Tano_Passami_L_olio-Milan_Lombardy.html,1074807,Tano Passami L'olio,4.3,688,"Via Francesco Petrarca, 4, 20143 Milano Italia",Via Francesco Petrarca,4,20143,Milano,45.471618,9.1696048,1,486,€€€€,4,"['Italiana', 'Pesce']",1,1,0,1,1,1,1,1,1,tanopassamilolio.it,+39028394139,tano@tanopassamilolio.it,[]
https://www.tripadvisor.it/Restaurant_Review-g187849-d1074933-Reviews-Osteria_Della_Stazione_l_Originale-Milan_Lombardy.html,1074933,Osteria Della Stazione,4.1,577,"Via Popoli Uniti 26 MM Rovereto, 20127 Milano Italia",Via Popoli Uniti,26,20127,Milano,,,0,182,€€-€€€,2,['Italiana'],1,1,0,1,1,1,1,1,1,osteriadellastazione.it,+390228381700,info@osteriadellastazione.it,['missing_coordinates']
https://www.tripadvisor.it/Restaurant_Review-g187849-d1074938-Reviews-Nuova_Arena-Milan_Lombardy.html,1074938,Nuova Arena,3.9,269,"Piazza Lega Lombarda, 5, 20154 Milano Italia",Piazza Lega Lombarda,5,20154,Milano,45.4780244,9.1800894,1,92,€€-€€€,2,"['Italiana', 'Pizza']",1,1,0,1,1,1,1,1,1,nuovarena.com,+3902341437,ristorantenuovarena@gmail.com,[]
https://www.tripadvisor.it/Restaurant_Review-g187849-d1074940-Reviews-A_Santa_Lucia-Milan_Lombardy.html,1074940,A Santa Lucia,3.0,1043,"Via San Pietro All'Orto 3, 20121 Milano Italia",Via San Pietro All'Orto,3,20121,Milano,45.4657676,9.1956373,1,320,€€-€€€,2,"['Italiana', 'Pizza']",1,1,0,1,1,1,1,1,1,asantalucia.it,+390276023155,info@asantalucia.it,[]
https://www.tripadvisor.it/Restaurant_Review-g187849-d1075501-Reviews-Margy_Burger-Milan_Lombardy.html,1075501,Margy Burger,3.9,497,"Piazza Santo Stefano 2, 20122 Milano Italia",Piazza Santo Stefano,2,20122,Milano,45.4623069,9.1942077,1,87,€,1,"['Italiana', 'Americana']",1,1,0,1,1,1,1,1,0,facebook.com/Margy-Burger-308880005843036,+390258303734,,[]
https://www.tripadvisor.it/Restaurant_Review-g187849-d10755469-Reviews-KFC-Milan_Lombardy.html,10755469,KFC,3.0,141,"Viale Sarca 228 Bicocca Village, 20126 Milano Italia",Viale Sarca,228,20126,Milano,,,0,62,€,1,['Americana'],1,1,0,1,1,1,1,1,1,kfc.it/ristoranti/kfc-bicocca-milano,+390266117069,bicocca@5roosters.com,['missing_coordinates']
https://www.tripadvisor.it/Restaurant_Review-g187849-d10758452-Reviews-Italy_Restaurant-Milan_Lombardy.html,10758452,Italy Restaurant,3.6,125,"Via San Prospero, 4 Angolo Via Dante, 20121 Milano Italia",Via San Prospero,4,20121,Milano,,,0,90,€€-€€€,2,['Italiana'],1,1,0,1,1,1,1,1,0,facebook.com/Italy-Restaurant-644666825690117,+390236728447,,['missing_coordinates']
https://www.tripadvisor.it/Restaurant_Review-g187849-d10762588-Reviews-QQTea_Taiwan_Bubble_Tea-Milan_Lombardy.html,10762588,QQTea Taiwan Bubble Tea,4.5,55,"via Paolo Sarpi 47, Milano Italia",via Paolo Sarpi,47,,,45.4811236,9.1734348,1,23,€,1,[],1,1,0,1,1,0,1,1,0,facebook.com/qqteamilan,+393669569104,,['no_hours']
https://www.tripadvisor.it/Restaurant_Review-g187849-d10767256-Reviews-Cascina_Martesana_Chiosco-Milan_Lombardy.html,10767256,Cascina Martesana Chiosco,3.7,53,"Via Luigi Bertelli 44 MM Turro / Gorla / Crescenzago, 20127 Milano Italia",Via Luigi Bertelli,44,20127,Milano,,,0,21,€,1,[],1,1,0,1,1,0,1,1,0,cascinamartesana.com,+393895820695,,"['no_hours', 'missing_coordinates']"
https://www.tripadvisor.it/Restaurant_Review-g187849-d10770986-Reviews-Mare_Culturale_Urbano-Milan_Lombardy.html,10770986,Mare Culturale Urbano,3.0,407,"Via Giuseppe Gabetti, 15, 20147 Milano Italia",Via Giuseppe Gabetti,15,20147,Milano,45.4687457,9.1240256,1,194,€€-€€€,2,"['Italiana', 'Pizza']",1,1,0,1,1,1,1,1,1,maremilano.org,+390245071825,info@maremilano.org,[]
https://www.tripadvisor.it/Restaurant_Review-g187849-d1077819-Reviews-Skuisito_Steak_House_Wine_Bar-Milan_Lombardy.html,1077819,Skuisito Steak House & Wine Bar,4.1,478,"Via Giovanni Pacini, 18, 20131 Milano Italia",Via Giovanni Pacini,18,20131,Milano,45.4815522,9.2276722,1,237,€€-€€€,2,"['Italiana', 'Americana']",1,1,0,1,1,1,1,1,1,skuisito.it,+390270638397,info@skuisito.it,[]
https://www.tripadvisor.it/Restaurant_Review-g187849-d1077833-Reviews-Trattoria_Trinacria-Milan_Lombardy.html,1077833,Trattoria Trinacria,3.7,466,"Via Savona 57, 20144 Milano Italia",Via Savona,57,20144,Milano,45.4529177,9.1603582,1,204,€€-€€€,2,"['Italiana', 'Pesce']",1,1,0,1,1,1,1,1,1,trattoriatrinacriamilano.com,+39024238250,trattoria.trinacria@libero.it,[]
https://www.tripadvisor.it/Restaurant_Review-g187849-d1077836-Reviews-Ristorante_Wu-Milan_Lombardy.html,1077836,Ristorante Wu,3.9,436,"Via Carlo Dolci 28, 20148 Milano Italia",Via Carlo Dolci,28,20148,Milano,45.4733529,9.1417105,1,119,€€-€€€,2,['Asiatica'],1,1,0,1,1,1,1,1,1,ristorantewu.com,+39024046944,info@ristorantewu.com,[]
https://www.tripadvisor.it/Restaurant_Review-g187849-d10779290-Reviews-Lido_Liquor_Bar-Milan_Lombardy.html,10779290,Lido Liquor Bar,3.8,12,"Piazzale Antonio Cantore 4, 20123 Milano Italia",Piazzale Antonio Cantore,4,20123,Milano,45.4564828,9.1732839,1,3,€€-€€€,2,['Gastronomia'],1,1,0,1,1,0,1,1,0,facebook.com/LIDO-liquor-bar-1414129845579627,+393891690362,,['no_hours']
https://www.tripadvisor.it/Restaurant_Review-g187849-d10780691-Reviews-GhePensi_M_I-Milan_Lombardy.html,10780691,GhePensi M.I.,4.2,92,"Piazza Morbegno, 2, 20127 Milano Italia",Piazza Morbegno,2,20127,Milano,45.4928742,9.2165937,1,11,€,1,['Italiana'],1,1,0,1,1,0,1,1,0,ghepensi-mi.it,+390283487798,,['no_hours']
https://www.tripadvisor.it/Restaurant_Review-g187849-d10781416-Reviews-Bistrot_Bailamme-Milan_Lombardy.html,10781416,Bistrot Bailamme,4.0,1,"Foro Buonaparte, 18, 20121 Milano Italia",Foro Buonaparte,18,20121,Milano,45.4701764,9.1838631,1,,,,[],1,1,1,1,1,0,0,1,0,facebook.com/Gli-Amici-del-Bailamme-1229951167030534,,,"['low_review', 'no_hours']"
https://www.tripadvisor.it/Restaurant_Review-g187849-d1078175-Reviews-Damm_atra_ristorante_milanese-Milan_Lombardy.html,1078175,Damm-atrà ristorante milanese,4.2,1568,"Via Elia Lombardini 1, 20143 Milano Italia",Via Elia Lombardini,1,20143,Milano,45.4491486,9.1641666,1,656,€€-€€€,2,"['Italiana', 'Mediterranea']",1,1,0,1,1,1,1,1,1,dammatra.com,+393487408385,info.dammatra@dammatra.com,[]
https://www.tripadvisor.it/Restaurant_Review-g187849-d1078209-Reviews-L_Angolo_di_Casa_Milano-Milan_Lombardy.html,1078209,L'Angolo di Casa Milano,4.1,873,"Viale Piave 17 2 Piano, 20129 Milano Italia",Viale Piave,17,20129,Milano,,,0,370,€€€€,4,"['Italiana', 'Pesce']",1,1,0,1,1,1,1,1,1,angolodicasa.it,+390276016221,angolodiangelo@hotmail.it,['missing_coordinates']
https://www.tripadvisor.it/Restaurant_Review-g187849-d1078210-Reviews-Wu_Taiyo-Milan_Lombardy.html,1078210,Ristorante Wu Taiyo,3.4,122,"Via Plinio, 72, 20129 Milano Italia",Via Plinio,72,20129,Milano,45.4743815,9.2225393,1,27,€€-€€€,2,"['Cinese', 'Giapponese']",1,1,0,1,1,1,1,1,0,ristorantewutaiyo.it/en,+39022363474,,[]
https://www.tripadvisor.it/Restaurant_Review-g187849-d10791496-Reviews-Drinc_Cocktail_Conversation-Milan_Lombardy.html,10791496,Drinc. Cocktail & Conversation,4.7,198,"Via Plinio 32, 20129 Milano Italia",Via Plinio,32,20129,Milano,45.4774399,9.2156596,1,110,€€-€€€,2,['Italiana - Centro'],1,1,0,1,1,1,1,1,1,bydrinc.com,+393339984815,drincmilano@gmail.com,[]
https://www.tripadvisor.it/Restaurant_Review-g187849-d10792468-Reviews-Sciura_Maria_Panzerotti_Via_Cenisio_36-Milan_Lombardy.html,10792468,"Sciura Maria Panzerotti Via Cenisio, 36",4.4,173,"Via Cenisio, 36, 20154 Milano Italia",Via Cenisio,36,20154,Milano,45.4877724,9.1674401,1,156,€,1,"['Italiana', 'Pizza']",1,1,0,1,1,1,1,1,1,facebook.com/sciuramariacenisio36,+390299243062,info@sciuramariapanzerotti.com,[]
https://www.tripadvisor.it/Restaurant_Review-g187849-d10797877-Reviews-Pizzeria_La_Stella-Milan_Lombardy.html,10797877,Pizzeria La Stella,4.2,5,"Via Elio Adriano 110, 20128 Milano Italia",Via Elio Adriano,110,20128,Milano,,,0,,,,[],1,1,1,1,1,0,0,0,0,,,,"['low_review', 'no_hours', 'missing_coordinates']"
https://www.tripadvisor.it/Restaurant_Review-g187849-d1080232-Reviews-Maruzzella_Restauranti_Pizzeria-Milan_Lombardy.html,1080232,Maruzzella Restauranti Pizzeria,3.9,2543,"Oberdan Square, 20129 Milano Italia",Oberdan Square,,20129,Milano,,,0,693,€€-€€€,2,['Pizza'],1,1,0,1,1,1,1,1,1,pizzeriamaruzzellamilano.it,+390229525729,ristorantemaruzzellaoberdan3@gmail.com,['missing_coordinates']
https://www.tripadvisor.it/Restaurant_Review-g187849-d10805589-Reviews-Pizzeria_La_Regina-Milan_Lombardy.html,10805589,Pizzeria La Regina,4.3,3,"Via Novara 373, 20153 Milano Italia",Via Novara,373,20153,Milano,45.4826064,9.0908413,1,,,,['Pizza'],1,1,1,1,1,0,1,0,0,,+390249524479,,"['low_review', 'no_hours']"
https://www.tripadvisor.it/Restaurant_Review-g187849-d10806890-Reviews-Il_Ristoro_Delle_Rane_Ranokkio-Milan_Lombardy.html,10806890,Il Ristoro Delle Rane & Ranokkio,4.3,68,"Via Pescara 44, 20142 Milano Italia",Via Pescara,44,20142,Milano,45.4006417,9.1823716,1,30,€€-€€€,2,['Italiana'],1,1,0,1,1,1,1,1,1,sinapsionlus.org,+390239661737,ristororane@gmail.com,[]
https://www.tripadvisor.it/Restaurant_Review-g187849-d10809021-Reviews-Soprattutto-Milan_Lombardy.html,10809021,Soprattutto,4.7,263,"Piazza Cartagine 4, 20138 Milano Italia",Piazza Cartagine,4,20138,Milano,45.456169,9.2383051,1,181,€€-€€€,2,"['Italiana', 'Steakhouse']",1,1,0,1,1,1,1,1,1,soprattuttocarne.it,+393383076290,soprattutto2019@gmail.com,[]
https://www.tripadvisor.it/Restaurant_Review-g187849-d1081199-Reviews-Mido_Ristorante_Arabo-Milan_Lombardy.html,1081199,Mido Ristorante Arabo,4.0,358,"Via Pietro Custodi 4, 20136 Milano Italia",Via Pietro Custodi,4,20136,Milano,45.4513811,9.181911,1,41,€€-€€€,2,"['Marocchina', 'Mediterranea']",1,1,0,1,1,1,1,1,1,ristorantemido.com,+39028375249,info@ristorantemido.com,[]
https://www.tripadvisor.it/Restaurant_Review-g187849-d1081318-Reviews-Norman-Milan_Lombardy.html,1081318,Norman,4.1,1887,"Viale Umbria 50 angolo via Tito Livio, 20135 Milano Italia",Viale Umbria,50,20135,Milano,,,0,632,€€-€€€,2,['Italiana'],1,1,0,1,1,1,1,1,1,normancucina.it,+39025457572,info@normancucina.it,['missing_coordinates']
https://www.tripadvisor.it/Restaurant_Review-g187849-d10815813-Reviews-Il_Giusto_Gusto-Milan_Lombardy.html,10815813,Il Giusto Gusto,4.5,53,"Via Anfossi 9, 20122 Milano Italia",Via Anfossi,9,20122,Milano,45.4605052,9.2094385,1,54,€€-€€€,2,['Italiana'],1,1,0,1,1,1,1,1,1,facebook.com/Il-Giusto-Gusto-Milano-222501987917520/?hcref=PAGESTIMELINE,+390283965639,roberto_86@hotmail.it,[]
https://www.tripadvisor.it/Restaurant_Review-g187849-d1081850-Reviews-Old_Fox_Pub-Milan_Lombardy.html,1081850,Old Fox Pub Milano,2.8,237,"Piazza Sant'Agostino, 1, 20123 Milano Italia",Piazza Sant'Agostino,1,20123,Milano,45.4586827,9.1705669,1,42,€,1,['Britannica'],1,1,0,1,1,1,1,1,1,oldfoxpub.it,+390289402622,prenotazioni.oldfoxpubmilano@gmail.com,[]
https://www.tripadvisor.it/Restaurant_Review-g187849-d1081851-Reviews-Da_Salvatore_Trattoria_Siciliana-Milan_Lombardy.html,1081851,Da Salvatore Trattoria Siciliana,4.4,859,"Viale Brianza 35, 20147 Milano Italia",Viale Brianza,35,20147,Milano,45.4889186,9.2098669,1,375,€€-€€€,2,"['Italiana', 'Pesce']",1,1,0,1,1,1,1,1,1,trattoriasiciliana.it,+39026692784,info@trattoriasiciliana.it,[]
https://www.tripadvisor.it/Restaurant_Review-g187849-d1081853-Reviews-Da_Martino-Milan_Lombardy.html,1081853,Da Martino,3.8,820,"Via Carlo Farini 8, 20154 Milano Italia",Via Carlo Farini,8,20154,Milano,45.4835435,9.1818238,1,297,€,1,"['Italiana', 'Mediterranea']",1,1,0,1,1,1,1,1,0,damartino1950.com,+39026554974,,[]
https://www.tripadvisor.it/Restaurant_Review-g187849-d1081856-Reviews-Trattoria_Casottel-Milan_Lombardy.html,1081856,Trattoria Casottel,3.4,461,"Via Fabio Massimo, 25, 20139 Milano Italia",Via Fabio Massimo,25,20139,Milano,45.4346222,9.2273605,1,127,€€-€€€,2,['Italiana'],1,1,0,1,1,1,1,1,0,casottel.it,+390257403009,,[]
https://www.tripadvisor.it/Restaurant_Review-g187849-d1081873-Reviews-Trattoria_Casa_Fontana_23_Risotti-Milan_Lombardy.html,1081873,Trattoria Casa Fontana - 23 Risotti,4.0,783,"Piazza Carbonari 5, 20125 Milano Italia",Piazza Carbonari,5,20125,Milano,45.493713,9.1986041,1,368,€€-€€€,2,"['Italiana', 'Mediterranea']",1,1,0,1,1,1,1,1,1,23risotti.it,+39026704710,trattoria@23risotti.it,[]
https://www.tripadvisor.it/Restaurant_Review-g187849-d1081874-Reviews-Cantina_Piemontese-Milan_Lombardy.html,1081874,Cantina Piemontese,3.9,619,"Via Laghetto 2, 20122 Milano Italia",Via Laghetto,2,20122,Milano,45.4614842,9.195516,1,254,€€-€€€,2,"['Italiana', 'Mediterranea']",1,1,0,1,1,1,1,1,1,cantina-piemontese.it,+3902784618,cantinapiemontese@gmail.com,[]
https://www.tripadvisor.it/Restaurant_Review-g187849-d1081876-Reviews-Masquenada-Milan_Lombardy.html,1081876,MASQUENADA,4.0,780,"viale piceno nr 3, 20129 Milano Italia",viale piceno nr,3,20129,Milano,45.4634125,9.2175098,1,167,€€-€€€,2,"['Messicana', 'Latino americana']",1,1,0,1,1,1,1,1,1,masquenada.it,+390270103327,info@masquenada.it,[]
https://www.tripadvisor.it/Restaurant_Review-g187849-d1081884-Reviews-Taverna_Calabiana-Milan_Lombardy.html,1081884,Taverna Calabiana,3.5,515,"Via Calabiana, 3, 20139 Milano Italia",Via Calabiana,3,20139,Milano,45.4439447,9.2088641,1,122,€€-€€€,2,"['Italiana', 'Pizza']",1,1,0,1,1,1,1,1,1,tavernacalabiana.it,+390255213075,info@tavernacalabiana.it,[]
https://www.tripadvisor.it/Restaurant_Review-g187849-d10820992-Reviews-Bubu_Fiaschetteria_Toscana-Milan_Lombardy.html,10820992,Bubu Fiaschetteria Toscana,4.5,23,"Via Bartolomeo Eustachi 16, 20129 Milano Italia",Via Bartolomeo Eustachi,16,20129,Milano,45.4791741,9.2147668,1,4,€€-€€€,2,[],1,1,0,1,1,0,1,1,0,facebook.com/Bubu-Fiaschetteria-Toscana-Via-Eustachi-16-982641255162915/?hc_ref=PAGES_TIMELINE&fref=nf,+390291675612,,['no_hours']
https://www.tripadvisor.it/Restaurant_Review-g187849-d10821966-Reviews-Cik_Fried_Chicken-Milan_Lombardy.html,10821966,Cik Fried Chicken,3.9,31,"Via Ludovico Montegani 1, 20141 Milano Italia",Via Ludovico Montegani,1,20141,Milano,,,0,30,€,1,"['Americana', 'Fast food']",1,1,0,1,1,1,1,1,1,cikchicken.com,+390289516110,info@cikchicken.com,['missing_coordinates']
https://www.tripadvisor.it/Restaurant_Review-g187849-d10831194-Reviews-Pizzeria_Le_Piramidi-Milan_Lombardy.html,10831194,Pizzeria Le Piramidi,4.4,7,"Via Alfonso Corti 7, 20133 Milano Italia",Via Alfonso Corti,7,20133,Milano,45.4807549,9.2315977,1,2,€,1,"['Italiana', 'Mediterranea']",1,1,1,1,1,0,1,1,0,lepiramidipizzeria.it,+393338893340,,"['low_review', 'no_hours']"
https://www.tripadvisor.it/Restaurant_Review-g187849-d1083203-Reviews-Maio_Restaurant-Milan_Lombardy.html,1083203,Maio Restaurant,3.9,1885,"Piazza del Duomo La Rinascente, 7th floor, 20121 Milano Italia",Piazza del Duomo La Rinascente,7th,20121,Milano,,,0,1433,€€-€€€,2,"['Italiana', 'Mediterranea']",1,1,0,1,1,1,1,1,1,maiorestaurant.com,+39028852455,milano@maiorestaurant.com,['missing_coordinates']
https://www.tripadvisor.it/Restaurant_Review-g187849-d10832440-Reviews-Pescaria_Milano_Via_Bonnet-Milan_Lombardy.html,10832440,Pescaria - Milano Via Bonnet,3.7,2255,"Via Nino Bonnet, 5, 20154 Milano Italia",Via Nino Bonnet,5,20154,Milano,45.4822381,9.1846056,1,1345,€,1,"['Italiana', 'Pesce']",1,1,0,1,1,1,1,1,1,pescaria.it,+39026599322,amministrazione@pescaria.it,[]
https://www.tripadvisor.it/Restaurant_Review-g187849-d1083281-Reviews-Sauris_borc_da_bria-Milan_Lombardy.html,1083281,Sauris & borc da bria,4.3,487,"Via Pietro Toselli 2, 20127 Milano Italia",Via Pietro Toselli,2,20127,Milano,45.5001143,9.2350329,1,207,€€-€€€,2,['Italiana'],1,1,0,1,1,1,1,1,1,hosteriasauris.it,+390226825943,saurisborcdabria@gmail.com,[]
https://www.tripadvisor.it/Restaurant_Review-g187849-d10836642-Reviews-SL_Station_Grill-Milan_Lombardy.html,10836642,SL Station Grill,2.0,2,"Viale Sarca 336/60, 20126 Milano Italia",Viale Sarca,336/60,20126,Milano,45.5227017,9.212775,1,3,,,[],1,1,1,1,1,0,0,0,0,,,,"['low_review', 'no_hours']"
https://www.tripadvisor.it/Restaurant_Review-g187849-d1083816-Reviews-A_Riccione_Bistrot-Milan_Lombardy.html,1083816,A' Riccione Bistrot,4.0,884,"Via Procaccini Giulio Cesare, 28, 20154 Milano Italia",Via Procaccini Giulio Cesare,28,20154,Milano,,,0,330,€€€€,4,"['Italiana', 'Pesce']",1,1,0,1,1,1,1,1,1,ariccionemilano.it/ariccione-bistrot,+393476372531,info@ristoranteariccione.com,['missing_coordinates']
https://www.tripadvisor.it/Restaurant_Review-g187849-d1084188-Reviews-La_Porta_Rossa-Milan_Lombardy.html,1084188,La Porta Rossa,3.9,549,"Via Vittor Pisani n. 3 Angolo Via Locatelli N.2, 20124 Milano Italia",Via Vittor Pisani n.,3,20124,Milano,,,0,180,€€-€€€,2,"['Italiana', 'Pizza']",1,1,0,1,1,1,1,1,1,ristorantelaportarossamilano.it,+39026705932,laportarossa@hotmail.com,['missing_coordinates']
https://www.tripadvisor.it/Restaurant_Review-g187849-d1084206-Reviews-Trattoria_Amici_Miei-Milan_Lombardy.html,1084206,"Trattoria ""Amici Miei""",3.5,1626,"Viale Bligny 36, 20136 Milano Italia",Viale Bligny,36,20136,Milano,45.4508431,9.1917713,1,663,€€-€€€,2,"['Italiana', 'Europea']",1,1,0,1,1,1,1,1,1,amicimieimilano.it,+390258321197,martadelazzari@libero.it,[]
https://www.tripadvisor.it/Restaurant_Review-g187849-d1084211-Reviews-Il_Pomodorino-Milan_Lombardy.html,1084211,Il Pomodorino,3.5,751,"Via Andrea Solari 39 Zona Piazza Napoli, 20144 Milano Italia",Via Andrea Solari,39,20144,Milano,,,0,193,€€-€€€,2,"['Italiana', 'Pizza']",1,1,0,1,1,1,1,1,0,ilpomodorino.net,+390242297556,,['missing_coordinates']
https://www.tripadvisor.it/Restaurant_Review-g187849-d1084214-Reviews-Obica_Mozzarella_Bar_Duomo-Milan_Lombardy.html,1084214,Obica Mozzarella Bar - Duomo,3.6,2654,"Piazza del Duomo 7th Floor, Food Hall, 20121 Milano Italia",Piazza del Duomo,7th,20121,Milano,,,0,1119,€€-€€€,2,"['Italiana', 'Pizza']",1,1,0,1,1,1,1,1,1,obica.com/ristoranti/milano-duomo,+39028852453,duomo@obica.com,['missing_coordinates']
https://www.tripadvisor.it/Restaurant_Review-g187849-d1084216-Reviews-Giardino_di_Giada_Jade_Garden-Milan_Lombardy.html,1084216,Giardino di Giada,3.8,402,"Via Palazzo Reale 5, 20122 Milano Italia",Via Palazzo Reale,5,20122,Milano,45.462437,9.1926307,1,157,€€-€€€,2,"['Cinese', 'Pesce']",1,1,0,1,1,1,1,1,0,giardinodigiada.it,+39028053891,,[]
https://www.tripadvisor.it/Restaurant_Review-g187849-d10843727-Reviews-Bitter_Bar-Milan_Lombardy.html,10843727,Bitter Bar,5.0,7,"Via Vittorio Bottego 25, 20132 Milano Italia",Via Vittorio Bottego,25,20132,Milano,45.5038842,9.2455554,1,,€,1,['Italiana'],1,1,1,1,1,0,1,0,0,,+390243119716,,"['low_review', 'no_hours']"
https://www.tripadvisor.it/Restaurant_Review-g187849-d1084589-Reviews-Il_Trullo_Osteria_Pizzeria_Cucina_Pugliese-Milan_Lombardy.html,1084589,Il Trullo Osteria Pizzeria Cucina Pugliese,3.8,514,"Via Achille Maiocchi 14, 20129 Milano Italia",Via Achille Maiocchi,14,20129,Milano,45.4750857,9.2130892,1,125,€€-€€€,2,"['Italiana', 'Pizza']",1,1,0,1,1,1,1,1,0,osteriailtrullomilano.it,+390229513720,,[]
https://www.tripadvisor.it/Restaurant_Review-g187849-d10862809-Reviews-Gelateria_Meneghina_Srl-Milan_Lombardy.html,10862809,Gelateria Meneghina Srl,3.7,18,"Ripa di Porta Ticinese 13, 20143 Milano Italia",Ripa di Porta Ticinese,13,20143,Milano,45.4519192,9.1763045,1,7,€€-€€€,2,[],1,1,0,1,1,0,0,0,0,,,,['no_hours']
https://www.tripadvisor.it/Restaurant_Review-g187849-d10874649-Reviews-Fancy_Toast-Milan_Lombardy.html,10874649,Fancy Toast,4.0,635,"Piazza della Trivulziana 5, 20126 Milano Italia",Piazza della Trivulziana,5,20126,Milano,45.5152024,9.2113814,1,463,€€-€€€,2,"['Italiana', 'Americana']",1,1,0,1,1,1,1,1,1,fancytoast.it,+390238244262,hello@fancytoast.it,[]
https://www.tripadvisor.it/Restaurant_Review-g187849-d1087736-Reviews-At_Old_Plow-Milan_Lombardy.html,1087736,Al Vecchio Aratro,3.9,514,"Via Matteo Maria Boiardo 20, 20127 Milano Italia",Via Matteo Maria Boiardo,20,20127,Milano,45.4999499,9.2225876,1,79,€,1,"['Italiana', 'Mediterranea']",1,1,0,1,1,1,1,1,0,facebook.com/Al-Vecchio-Aratro-105578016164609,+39022619137,,[]
https://www.tripadvisor.it/Restaurant_Review-g187849-d1087737-Reviews-Demus-Milan_Lombardy.html,1087737,Demus,3.9,238,"Viale Martini 15, 20139 Milano Italia",Viale Martini,15,20139,Milano,45.4381808,9.2245435,1,56,€,1,"['Italiana', 'Pizza']",1,1,0,1,1,1,1,1,0,facebook.com/pages/Pizzeria-Demus/130926920290282,+39025394751,,[]
https://www.tripadvisor.it/Restaurant_Review-g187849-d1087739-Reviews-Coke-Milan_Lombardy.html,1087739,Coke,4.0,489,"Via Pavia 10, 20136 Milano Italia",Via Pavia,10,20136,Milano,45.4476014,9.1776202,1,72,€,1,"['Italiana', 'Pizza']",1,1,0,1,1,1,1,1,0,facebook.com/Pizzeria-COKE-155001314602803,+39028394886,,[]
https://www.tripadvisor.it/Restaurant_Review-g187849-d1087743-Reviews-L_Agristorante-Milan_Lombardy.html,1087743,L'Agristorante,4.2,433,"Via Boncompagni, 94, 20139 Milano Italia",Via Boncompagni,94,20139,Milano,45.4361735,9.23536,1,178,€€-€€€,2,"['Italiana', 'Mediterranea']",1,1,0,1,1,1,1,1,0,facebook.com/L-Agristorante-90307557050,+390255231455,,[]
